[
  {
    "name": "Böle",
    "lat": 64.36667,
    "lng": 21.35833,
    "population": 418
  },
  {
    "name": "Hästholmen",
    "lat": 65.75,
    "lng": 23.01667,
    "population": 372
  },
  {
    "name": "Bredviken",
    "lat": 65.80425,
    "lng": 23.60185,
    "population": 374
  },
  {
    "name": "Vuollerim",
    "lat": 66.43038,
    "lng": 20.62434,
    "population": 683
  },
  {
    "name": "Vittjärv",
    "lat": 65.85,
    "lng": 21.56667,
    "population": 498
  },
  {
    "name": "Vittangi",
    "lat": 67.67589,
    "lng": 21.64204,
    "population": 791
  },
  {
    "name": "Vistheden",
    "lat": 65.7,
    "lng": 20.65,
    "population": 258
  },
  {
    "name": "Viken",
    "lat": 64.72587,
    "lng": 20.91548,
    "population": 3753
  },
  {
    "name": "Vidsel",
    "lat": 65.83533,
    "lng": 20.51908,
    "population": 526
  },
  {
    "name": "Vännäsberget",
    "lat": 66.38333,
    "lng": 22.78333,
    "population": 207
  },
  {
    "name": "Ursviken",
    "lat": 64.71261,
    "lng": 21.1658,
    "population": 3913
  },
  {
    "name": "Unbyn",
    "lat": 65.71667,
    "lng": 21.75,
    "population": 449
  },
  {
    "name": "Umeå Kommun",
    "lat": 63.82992,
    "lng": 20.25484,
    "population": 134249
  },
  {
    "name": "Umeå",
    "lat": 63.82842,
    "lng": 20.25972,
    "population": 130224
  },
  {
    "name": "Ullatti",
    "lat": 67.01667,
    "lng": 21.81667,
    "population": 230
  },
  {
    "name": "Tuolluvaara",
    "lat": 67.85,
    "lng": 20.33333,
    "population": 979
  },
  {
    "name": "Töre",
    "lat": 65.91243,
    "lng": 22.65128,
    "population": 1051
  },
  {
    "name": "Tavelsjö",
    "lat": 64.03892,
    "lng": 20.05786,
    "population": 461
  },
  {
    "name": "Tärendö",
    "lat": 67.15137,
    "lng": 22.63681,
    "population": 482
  },
  {
    "name": "Tallvik",
    "lat": 66.33333,
    "lng": 22.85,
    "population": 497
  },
  {
    "name": "Tällberg",
    "lat": 64.98333,
    "lng": 20.8,
    "population": 637
  },
  {
    "name": "Täfteå",
    "lat": 63.8397,
    "lng": 20.47857,
    "population": 1305
  },
  {
    "name": "Svensbyn",
    "lat": 65.31344,
    "lng": 21.23634,
    "population": 345
  },
  {
    "name": "Svartbyn",
    "lat": 66.26575,
    "lng": 22.83546,
    "population": 265
  },
  {
    "name": "Svartå",
    "lat": 65.03333,
    "lng": 20.76667,
    "population": 592
  },
  {
    "name": "Svappavaara",
    "lat": 67.64721,
    "lng": 21.05401,
    "population": 400
  },
  {
    "name": "Svanstein",
    "lat": 66.65171,
    "lng": 23.85989,
    "population": 207
  },
  {
    "name": "Sundom",
    "lat": 65.77152,
    "lng": 22.26688,
    "population": 219
  },
  {
    "name": "Storvik",
    "lat": 65.15,
    "lng": 20.73333,
    "population": 2251
  },
  {
    "name": "Stöcksjö",
    "lat": 63.77835,
    "lng": 20.19313,
    "population": 394
  },
  {
    "name": "Stöcke",
    "lat": 63.74196,
    "lng": 20.23022,
    "population": 487
  },
  {
    "name": "Stensjön",
    "lat": 64.98333,
    "lng": 21.1,
    "population": 663
  },
  {
    "name": "Sörmjöle",
    "lat": 63.68333,
    "lng": 20,
    "population": 307
  },
  {
    "name": "Sörfors",
    "lat": 64.13333,
    "lng": 20.63333,
    "population": 397
  },
  {
    "name": "Sörfors",
    "lat": 63.87022,
    "lng": 20.03207,
    "population": 460
  },
  {
    "name": "Södra Sunderbyn",
    "lat": 65.65983,
    "lng": 21.94004,
    "population": 3162
  },
  {
    "name": "Slyträsk",
    "lat": 65.8335,
    "lng": 21.26887,
    "population": 1
  },
  {
    "name": "Skelleftehamn",
    "lat": 64.68333,
    "lng": 21.23333,
    "population": 3069
  },
  {
    "name": "Skellefteå Kommun",
    "lat": 64.80261,
    "lng": 20.6441,
    "population": 78150
  },
  {
    "name": "Skellefteå",
    "lat": 64.75067,
    "lng": 20.95279,
    "population": 35516
  },
  {
    "name": "Sjulsmark",
    "lat": 65.51667,
    "lng": 21.5,
    "population": 353
  },
  {
    "name": "Sinksundet",
    "lat": 65.61944,
    "lng": 22.2026,
    "population": 253
  },
  {
    "name": "Sikfors",
    "lat": 65.53333,
    "lng": 21.16667,
    "population": 211
  },
  {
    "name": "Seittenkaari",
    "lat": 65.73795,
    "lng": 23.73965,
    "population": 498
  },
  {
    "name": "Råneå",
    "lat": 65.85482,
    "lng": 22.29126,
    "population": 1966
  },
  {
    "name": "Sävar",
    "lat": 63.90383,
    "lng": 20.55014,
    "population": 2968
  },
  {
    "name": "Sangis",
    "lat": 65.85573,
    "lng": 23.49689,
    "population": 543
  },
  {
    "name": "Rutvik",
    "lat": 65.67171,
    "lng": 22.08973,
    "population": 896
  },
  {
    "name": "Rosvik",
    "lat": 65.43333,
    "lng": 21.7,
    "population": 1848
  },
  {
    "name": "Rolfs",
    "lat": 65.85,
    "lng": 23.11667,
    "population": 1001
  },
  {
    "name": "Roknäs",
    "lat": 65.35,
    "lng": 21.2,
    "population": 1259
  },
  {
    "name": "Robertsfors Kommun",
    "lat": 64.16604,
    "lng": 20.78415,
    "population": 6690
  },
  {
    "name": "Robertsfors",
    "lat": 64.19324,
    "lng": 20.84806,
    "population": 2030
  },
  {
    "name": "Röbäck",
    "lat": 63.80879,
    "lng": 20.18901,
    "population": 2460
  },
  {
    "name": "Risögrund",
    "lat": 65.81089,
    "lng": 23.24496,
    "population": 594
  },
  {
    "name": "Sävast",
    "lat": 65.77002,
    "lng": 21.73113,
    "population": 3093
  },
  {
    "name": "Piteå Kommun",
    "lat": 65.37229,
    "lng": 20.85153,
    "population": 42447
  },
  {
    "name": "Piteå",
    "lat": 65.31717,
    "lng": 21.47944,
    "population": 23067
  },
  {
    "name": "Persön",
    "lat": 65.74008,
    "lng": 22.16698,
    "population": 217
  },
  {
    "name": "Pello",
    "lat": 66.803,
    "lng": 23.9823,
    "population": 193
  },
  {
    "name": "Pajala Kommun",
    "lat": 67.24069,
    "lng": 22.91667,
    "population": 5857
  },
  {
    "name": "Pajala",
    "lat": 67.21284,
    "lng": 23.36607,
    "population": 2032
  },
  {
    "name": "Övre Soppero",
    "lat": 68.08333,
    "lng": 21.68333,
    "population": 220
  },
  {
    "name": "Övertorneå Kommun",
    "lat": 66.48317,
    "lng": 23.43866,
    "population": 4057
  },
  {
    "name": "Övertorneå",
    "lat": 66.38778,
    "lng": 23.65425,
    "population": 1906
  },
  {
    "name": "Överkalix Kommun",
    "lat": 66.47043,
    "lng": 22.57928,
    "population": 3201
  },
  {
    "name": "Överkalix",
    "lat": 66.32754,
    "lng": 22.84414,
    "population": 1036
  },
  {
    "name": "Ostvik",
    "lat": 64.88333,
    "lng": 21.06667,
    "population": 537
  },
  {
    "name": "Örviken",
    "lat": 64.67533,
    "lng": 21.19743,
    "population": 399
  },
  {
    "name": "Obbola",
    "lat": 63.7,
    "lng": 20.31667,
    "population": 2173
  },
  {
    "name": "Nyland",
    "lat": 64.81667,
    "lng": 20.76667,
    "population": 945
  },
  {
    "name": "Nygård",
    "lat": 65.06667,
    "lng": 20.4,
    "population": 436
  },
  {
    "name": "Nyborg",
    "lat": 65.78333,
    "lng": 23.2,
    "population": 823
  },
  {
    "name": "Norrmjöle",
    "lat": 63.66667,
    "lng": 20.11667,
    "population": 228
  },
  {
    "name": "Norrfjärden",
    "lat": 65.41805,
    "lng": 21.50151,
    "population": 1562
  },
  {
    "name": "Norrbotten County",
    "lat": 67,
    "lng": 20,
    "population": 195267
  },
  {
    "name": "Nikkala",
    "lat": 65.80158,
    "lng": 23.91649,
    "population": 417
  },
  {
    "name": "Myckle",
    "lat": 64.75297,
    "lng": 20.85154,
    "population": 416
  },
  {
    "name": "Morjärv",
    "lat": 66.06667,
    "lng": 22.71667,
    "population": 297
  },
  {
    "name": "Medle",
    "lat": 64.73818,
    "lng": 20.73206,
    "population": 543
  },
  {
    "name": "Måttsund",
    "lat": 65.55,
    "lng": 21.9,
    "population": 589
  },
  {
    "name": "Malmberget",
    "lat": 67.17529,
    "lng": 20.65495,
    "population": 6017
  },
  {
    "name": "Luleå kommun",
    "lat": 65.68333,
    "lng": 22.16667,
    "population": 79645
  },
  {
    "name": "Luleå",
    "lat": 65.58415,
    "lng": 22.15465,
    "population": 77832
  },
  {
    "name": "Lövånger",
    "lat": 64.36667,
    "lng": 21.3,
    "population": 810
  },
  {
    "name": "Lillpite",
    "lat": 65.37506,
    "lng": 21.14704,
    "population": 385
  },
  {
    "name": "Liden",
    "lat": 64.91667,
    "lng": 20.78333,
    "population": 269
  },
  {
    "name": "Lansjärv",
    "lat": 66.65403,
    "lng": 22.19612,
    "population": 68
  },
  {
    "name": "Långvik",
    "lat": 66.11667,
    "lng": 22.23333,
    "population": 536
  },
  {
    "name": "Långsele",
    "lat": 64.81667,
    "lng": 20.25,
    "population": 1620
  },
  {
    "name": "Kuttainen",
    "lat": 68.37927,
    "lng": 22.81043,
    "population": 218
  },
  {
    "name": "Kusmark",
    "lat": 64.88333,
    "lng": 20.8,
    "population": 448
  },
  {
    "name": "Koskullskulle",
    "lat": 67.18333,
    "lng": 20.75,
    "population": 818
  },
  {
    "name": "Korsträsk",
    "lat": 65.66757,
    "lng": 20.86662,
    "population": 317
  },
  {
    "name": "Korpilombolo",
    "lat": 66.85177,
    "lng": 23.05515,
    "population": 539
  },
  {
    "name": "Kopparnäs",
    "lat": 65.40263,
    "lng": 21.482,
    "population": 225
  },
  {
    "name": "Klutmark",
    "lat": 64.73333,
    "lng": 20.73333,
    "population": 207
  },
  {
    "name": "Klöverträsk",
    "lat": 65.63525,
    "lng": 21.40508,
    "population": 241
  },
  {
    "name": "Kiruna",
    "lat": 67.85572,
    "lng": 20.22513,
    "population": 17037
  },
  {
    "name": "Keinovuopio",
    "lat": 68.87497,
    "lng": 21.04448,
    "population": 6
  },
  {
    "name": "Kaunisvaara",
    "lat": 67.38333,
    "lng": 23.35,
    "population": 76
  },
  {
    "name": "Karungi",
    "lat": 66.04206,
    "lng": 23.95509,
    "population": 209
  },
  {
    "name": "Karlsvik",
    "lat": 65.59781,
    "lng": 22.07067,
    "population": 255
  },
  {
    "name": "Karesuando",
    "lat": 68.43959,
    "lng": 22.47047,
    "population": 280
  },
  {
    "name": "Kangos",
    "lat": 67.48975,
    "lng": 22.656,
    "population": 245
  },
  {
    "name": "Kallax",
    "lat": 65.52989,
    "lng": 22.05557,
    "population": 461
  },
  {
    "name": "Kalix Kommun",
    "lat": 65.96118,
    "lng": 22.98669,
    "population": 15391
  },
  {
    "name": "Kalix",
    "lat": 65.85298,
    "lng": 23.15645,
    "population": 7495
  },
  {
    "name": "Kåge",
    "lat": 64.83571,
    "lng": 20.98453,
    "population": 2376
  },
  {
    "name": "Juoksengi",
    "lat": 66.56927,
    "lng": 23.85354,
    "population": 327
  },
  {
    "name": "Junosuando",
    "lat": 67.42686,
    "lng": 22.50513,
    "population": 314
  },
  {
    "name": "Jukkasjärvi",
    "lat": 67.85,
    "lng": 20.61667,
    "population": 607
  },
  {
    "name": "Jörn",
    "lat": 65.05914,
    "lng": 20.03919,
    "population": 777
  },
  {
    "name": "Jockfall",
    "lat": 66.65,
    "lng": 22.71667,
    "population": 59
  },
  {
    "name": "Jävre",
    "lat": 65.15,
    "lng": 21.48333,
    "population": 574
  },
  {
    "name": "Jämtön",
    "lat": 65.85,
    "lng": 22.5,
    "population": 203
  },
  {
    "name": "Innertavle",
    "lat": 63.81121,
    "lng": 20.40752,
    "population": 576
  },
  {
    "name": "Hortlax",
    "lat": 65.28188,
    "lng": 21.40544,
    "population": 1128
  },
  {
    "name": "Holmsund",
    "lat": 63.70602,
    "lng": 20.36409,
    "population": 5962
  },
  {
    "name": "Hissjön",
    "lat": 63.93333,
    "lng": 20.15,
    "population": 471
  },
  {
    "name": "Hemmingsmark",
    "lat": 65.22246,
    "lng": 21.28441,
    "population": 366
  },
  {
    "name": "Hedenäset",
    "lat": 66.41667,
    "lng": 23.7,
    "population": 285
  },
  {
    "name": "Harads",
    "lat": 66.08401,
    "lng": 20.95505,
    "population": 496
  },
  {
    "name": "Haparanda Kommun",
    "lat": 65.91662,
    "lng": 23.84607,
    "population": 9151
  },
  {
    "name": "Haparanda",
    "lat": 65.83549,
    "lng": 24.13676,
    "population": 6679
  },
  {
    "name": "Hakkas",
    "lat": 66.91667,
    "lng": 21.55,
    "population": 374
  },
  {
    "name": "Gammelstad",
    "lat": 65.63931,
    "lng": 22.01145,
    "population": 4892
  },
  {
    "name": "Gammelgården",
    "lat": 65.88333,
    "lng": 23.03333,
    "population": 281
  },
  {
    "name": "Gällivare kommun",
    "lat": 67.39347,
    "lng": 19.70834,
    "population": 17233
  },
  {
    "name": "Gällivare",
    "lat": 67.13387,
    "lng": 20.65278,
    "population": 10362
  },
  {
    "name": "Forsbacka",
    "lat": 64.76667,
    "lng": 20.5,
    "population": 1748
  },
  {
    "name": "Flurkmark",
    "lat": 63.9812,
    "lng": 20.23606,
    "population": 210
  },
  {
    "name": "Ersnäs",
    "lat": 65.52733,
    "lng": 21.79554,
    "population": 478
  },
  {
    "name": "Ersmark",
    "lat": 64.84806,
    "lng": 20.896,
    "population": 875
  },
  {
    "name": "Ersmark",
    "lat": 63.88333,
    "lng": 20.31667,
    "population": 1650
  },
  {
    "name": "Byske",
    "lat": 64.95258,
    "lng": 21.2058,
    "population": 1785
  },
  {
    "name": "Bygdsiljum",
    "lat": 64.34924,
    "lng": 20.50414,
    "population": 333
  },
  {
    "name": "Bygdeå",
    "lat": 64.05992,
    "lng": 20.85593,
    "population": 512
  },
  {
    "name": "Burträsk",
    "lat": 64.51667,
    "lng": 20.65,
    "population": 1573
  },
  {
    "name": "Bureå",
    "lat": 64.61667,
    "lng": 21.2,
    "population": 2533
  },
  {
    "name": "Bullmark",
    "lat": 64.03146,
    "lng": 20.48317,
    "population": 329
  },
  {
    "name": "Bredviken",
    "lat": 65.82948,
    "lng": 23.21218,
    "population": 373
  },
  {
    "name": "Brattås",
    "lat": 64.45,
    "lng": 21.51667,
    "population": 339
  },
  {
    "name": "Brännland",
    "lat": 63.86953,
    "lng": 20.06978,
    "population": 336
  },
  {
    "name": "Bränna",
    "lat": 66.31667,
    "lng": 22.85,
    "population": 228
  },
  {
    "name": "Brändön",
    "lat": 65.7,
    "lng": 22.33333,
    "population": 324
  },
  {
    "name": "Botsmark",
    "lat": 64.2541,
    "lng": 20.24382,
    "population": 201
  },
  {
    "name": "Boliden",
    "lat": 64.86667,
    "lng": 20.38333,
    "population": 1661
  },
  {
    "name": "Böle",
    "lat": 65.38432,
    "lng": 21.32033,
    "population": 344
  },
  {
    "name": "Bodens Kommun",
    "lat": 66.04393,
    "lng": 21.29977,
    "population": 28049
  },
  {
    "name": "Boden",
    "lat": 65.82518,
    "lng": 21.68864,
    "population": 16830
  },
  {
    "name": "Blåsmark",
    "lat": 65.26667,
    "lng": 21.28333,
    "population": 299
  },
  {
    "name": "Bergsviken",
    "lat": 65.3,
    "lng": 21.38333,
    "population": 2251
  },
  {
    "name": "Södra Bergsbyn",
    "lat": 64.71421,
    "lng": 21.08929,
    "population": 342
  },
  {
    "name": "Bergnäset",
    "lat": 65.57791,
    "lng": 22.10844,
    "population": 3604
  },
  {
    "name": "Bensbyn",
    "lat": 65.64179,
    "lng": 22.24227,
    "population": 602
  },
  {
    "name": "Båtskärsnäs",
    "lat": 65.78333,
    "lng": 23.41667,
    "population": 227
  },
  {
    "name": "Bastuträsk",
    "lat": 64.79069,
    "lng": 20.04335,
    "population": 405
  },
  {
    "name": "Bälinge",
    "lat": 65.63421,
    "lng": 21.92837,
    "population": 308
  },
  {
    "name": "Backa",
    "lat": 64.98333,
    "lng": 21.06667,
    "population": 1516
  },
  {
    "name": "Avan",
    "lat": 65.68333,
    "lng": 21.8,
    "population": 213
  },
  {
    "name": "Åsen",
    "lat": 64.59058,
    "lng": 20.00091,
    "population": 262
  },
  {
    "name": "Antnäs",
    "lat": 65.55462,
    "lng": 21.83551,
    "population": 889
  },
  {
    "name": "Ånäset",
    "lat": 65.45,
    "lng": 20.88333,
    "population": 622
  },
  {
    "name": "Ånäset",
    "lat": 64.26667,
    "lng": 21.05,
    "population": 603
  },
  {
    "name": "Älvsbyns Kommun",
    "lat": 65.73201,
    "lng": 20.71412,
    "population": 7774
  },
  {
    "name": "Älvsbyn",
    "lat": 65.67624,
    "lng": 21.00162,
    "population": 4976
  },
  {
    "name": "Alvik",
    "lat": 65.51667,
    "lng": 21.76667,
    "population": 771
  },
  {
    "name": "Uddebo",
    "lat": 65.55,
    "lng": 22.23333,
    "population": 255
  },
  {
    "name": "Alunda",
    "lat": 60.26667,
    "lng": 18.4,
    "population": 2224
  },
  {
    "name": "Boda",
    "lat": 60.25,
    "lng": 18.38333,
    "population": 576
  },
  {
    "name": "Anneberg",
    "lat": 60.24167,
    "lng": 18.41667,
    "population": 1398
  },
  {
    "name": "Björklinge",
    "lat": 60.03004,
    "lng": 17.55203,
    "population": 3186
  },
  {
    "name": "Marieberg",
    "lat": 60.23333,
    "lng": 18.5,
    "population": 1181
  },
  {
    "name": "Hästhagen",
    "lat": 60.21667,
    "lng": 18.51667,
    "population": 472
  },
  {
    "name": "Näsviken",
    "lat": 60.11667,
    "lng": 18.66667,
    "population": 221
  },
  {
    "name": "Strömma",
    "lat": 59.70833,
    "lng": 19,
    "population": 516
  },
  {
    "name": "Östhamra",
    "lat": 59.75,
    "lng": 18.71667,
    "population": 254
  },
  {
    "name": "Södersvik",
    "lat": 59.78333,
    "lng": 18.98333,
    "population": 260
  },
  {
    "name": "Vik",
    "lat": 61.68333,
    "lng": 17.13333,
    "population": 264
  },
  {
    "name": "Holm",
    "lat": 61.66667,
    "lng": 17.21667,
    "population": 462
  },
  {
    "name": "Haga",
    "lat": 62.40667,
    "lng": 17.32889,
    "population": 236
  },
  {
    "name": "Hartungviken",
    "lat": 62.39333,
    "lng": 17.51583,
    "population": 400
  },
  {
    "name": "Saltvik",
    "lat": 62.65856,
    "lng": 17.86991,
    "population": 285
  },
  {
    "name": "Kläppa",
    "lat": 63.16667,
    "lng": 18.6,
    "population": 298
  },
  {
    "name": "Kingdom of Sweden",
    "lat": 62,
    "lng": 15,
    "population": 10183175
  },
  {
    "name": "Zinkgruvan",
    "lat": 58.81667,
    "lng": 15.08333,
    "population": 316
  },
  {
    "name": "Ytternäs",
    "lat": 59.78333,
    "lng": 17.6,
    "population": 775
  },
  {
    "name": "Yttermalung",
    "lat": 60.58333,
    "lng": 13.83333,
    "population": 216
  },
  {
    "name": "Ytterhogdal",
    "lat": 62.175,
    "lng": 14.94089,
    "population": 534
  },
  {
    "name": "Ytterberg",
    "lat": 62.06667,
    "lng": 14.48333,
    "population": 100
  },
  {
    "name": "Ytterån",
    "lat": 63.31766,
    "lng": 14.17037,
    "population": 203
  },
  {
    "name": "Ystads Kommun",
    "lat": 55.46367,
    "lng": 13.91153,
    "population": 32106
  },
  {
    "name": "Ystad",
    "lat": 55.42966,
    "lng": 13.82041,
    "population": 18806
  },
  {
    "name": "Ysby",
    "lat": 57.48028,
    "lng": 12.0175,
    "population": 246
  },
  {
    "name": "Ysby",
    "lat": 56.49234,
    "lng": 13.11747,
    "population": 245
  },
  {
    "name": "Ysane",
    "lat": 56.08333,
    "lng": 14.65,
    "population": 214
  },
  {
    "name": "Yngsjö",
    "lat": 55.88109,
    "lng": 14.24237,
    "population": 565
  },
  {
    "name": "Ydre Kommun",
    "lat": 57.86355,
    "lng": 15.26266,
    "population": 3626
  },
  {
    "name": "Vuoggatjålme",
    "lat": 66.57462,
    "lng": 16.34757,
    "population": 10
  },
  {
    "name": "Vrigstad",
    "lat": 57.35,
    "lng": 14.46667,
    "population": 1461
  },
  {
    "name": "Vretstorp",
    "lat": 59.03333,
    "lng": 14.86667,
    "population": 852
  },
  {
    "name": "Vrena",
    "lat": 58.86091,
    "lng": 16.69922,
    "population": 630
  },
  {
    "name": "Vrångö",
    "lat": 58.39972,
    "lng": 16.85,
    "population": 379
  },
  {
    "name": "Vrångö",
    "lat": 57.57278,
    "lng": 11.78361,
    "population": 351
  },
  {
    "name": "Vollsjö",
    "lat": 55.70039,
    "lng": 13.7915,
    "population": 813
  },
  {
    "name": "Vittskövle",
    "lat": 55.9,
    "lng": 13.18333,
    "population": 230
  },
  {
    "name": "Vittskövle",
    "lat": 55.85785,
    "lng": 14.14743,
    "population": 224
  },
  {
    "name": "Vittsjö",
    "lat": 56.34366,
    "lng": 13.66081,
    "population": 1787
  },
  {
    "name": "Vittinge",
    "lat": 59.9,
    "lng": 17.06667,
    "population": 566
  },
  {
    "name": "Vittaryd",
    "lat": 57.86667,
    "lng": 14.78333,
    "population": 306
  },
  {
    "name": "Vittaryd",
    "lat": 56.9709,
    "lng": 13.94451,
    "population": 304
  },
  {
    "name": "Vitaby",
    "lat": 55.6792,
    "lng": 14.1504,
    "population": 351
  },
  {
    "name": "Vissefjärda",
    "lat": 56.53333,
    "lng": 15.58333,
    "population": 658
  },
  {
    "name": "Vislanda",
    "lat": 56.78333,
    "lng": 14.45,
    "population": 1813
  },
  {
    "name": "Viskafors",
    "lat": 57.62941,
    "lng": 12.8489,
    "population": 3701
  },
  {
    "name": "Visingsö",
    "lat": 58.05,
    "lng": 14.33333,
    "population": 716
  },
  {
    "name": "Visby",
    "lat": 57.64089,
    "lng": 18.29602,
    "population": 23402
  },
  {
    "name": "Virserum",
    "lat": 57.31667,
    "lng": 15.58333,
    "population": 1769
  },
  {
    "name": "Vintrosa",
    "lat": 59.25,
    "lng": 14.95,
    "population": 2285
  },
  {
    "name": "Vintrie",
    "lat": 55.55,
    "lng": 12.96667,
    "population": 777
  },
  {
    "name": "Vinterviken",
    "lat": 59.31129,
    "lng": 17.9884,
    "population": 10
  },
  {
    "name": "Vinslöv",
    "lat": 56.1,
    "lng": 13.91667,
    "population": 3989
  },
  {
    "name": "Vinnö",
    "lat": 56.05,
    "lng": 14.08333,
    "population": 499
  },
  {
    "name": "Vinninga",
    "lat": 58.45,
    "lng": 13.26667,
    "population": 1033
  },
  {
    "name": "Vingåkers Kommun",
    "lat": 59.06667,
    "lng": 15.88333,
    "population": 8750
  },
  {
    "name": "Vingåker",
    "lat": 59.0433,
    "lng": 15.87374,
    "population": 4548
  },
  {
    "name": "Vindelns Kommun",
    "lat": 64.18605,
    "lng": 19.71222,
    "population": 5417
  },
  {
    "name": "Vindeln",
    "lat": 64.20175,
    "lng": 19.71945,
    "population": 2403
  },
  {
    "name": "Vinberg",
    "lat": 56.94968,
    "lng": 12.54394,
    "population": 606
  },
  {
    "name": "Vinäs",
    "lat": 60.96667,
    "lng": 14.53333,
    "population": 312
  },
  {
    "name": "Vimmerby Kommun",
    "lat": 57.69009,
    "lng": 15.86741,
    "population": 15384
  },
  {
    "name": "Vimmerby",
    "lat": 57.66588,
    "lng": 15.85515,
    "population": 8037
  },
  {
    "name": "Vilshult",
    "lat": 56.35397,
    "lng": 14.48247,
    "population": 303
  },
  {
    "name": "Villshärad",
    "lat": 56.69466,
    "lng": 12.69586,
    "population": 778
  },
  {
    "name": "Vilhelmina Kommun",
    "lat": 64.99358,
    "lng": 16.03212,
    "population": 6229
  },
  {
    "name": "Vilhelmina",
    "lat": 64.62417,
    "lng": 16.65596,
    "population": 3572
  },
  {
    "name": "Viksjöfors",
    "lat": 61.33333,
    "lng": 15.95,
    "population": 264
  },
  {
    "name": "Viksäter",
    "lat": 59.24091,
    "lng": 17.61486,
    "population": 859
  },
  {
    "name": "Vikmanshyttan",
    "lat": 60.29752,
    "lng": 15.83141,
    "population": 840
  },
  {
    "name": "Vikingstad",
    "lat": 58.38304,
    "lng": 15.43201,
    "population": 2335
  },
  {
    "name": "Viken",
    "lat": 56.15063,
    "lng": 12.57429,
    "population": 5610
  },
  {
    "name": "Vikarbyn",
    "lat": 60.91667,
    "lng": 15.01667,
    "population": 1193
  },
  {
    "name": "Vika",
    "lat": 60.95,
    "lng": 14.45,
    "population": 398
  },
  {
    "name": "Vika",
    "lat": 60.51341,
    "lng": 15.7161,
    "population": 582
  },
  {
    "name": "Vik",
    "lat": 55.61667,
    "lng": 14.28333,
    "population": 327
  },
  {
    "name": "Vi",
    "lat": 62.3,
    "lng": 17.16667,
    "population": 4757
  },
  {
    "name": "Vidja",
    "lat": 59.2,
    "lng": 18.06667,
    "population": 741
  },
  {
    "name": "Vickleby",
    "lat": 56.57918,
    "lng": 16.45936,
    "population": 438
  },
  {
    "name": "Viby",
    "lat": 60.1,
    "lng": 17.2,
    "population": 936
  },
  {
    "name": "Vibble",
    "lat": 57.60452,
    "lng": 18.25601,
    "population": 1709
  },
  {
    "name": "Vetlanda kommun",
    "lat": 57.36862,
    "lng": 15.18468,
    "population": 27528
  },
  {
    "name": "Vetlanda",
    "lat": 57.42887,
    "lng": 15.07762,
    "population": 13430
  },
  {
    "name": "Vessigebro",
    "lat": 56.98333,
    "lng": 12.65,
    "population": 773
  },
  {
    "name": "Venjan",
    "lat": 60.95,
    "lng": 13.91667,
    "population": 226
  },
  {
    "name": "Vena",
    "lat": 58.08333,
    "lng": 15.9,
    "population": 380
  },
  {
    "name": "Vena",
    "lat": 57.51939,
    "lng": 15.97442,
    "population": 394
  },
  {
    "name": "Ven",
    "lat": 55.91004,
    "lng": 12.69878,
    "population": 372
  },
  {
    "name": "Vemdalen",
    "lat": 62.45,
    "lng": 13.86667,
    "population": 549
  },
  {
    "name": "Vellinge Kommun",
    "lat": 55.44776,
    "lng": 13.00919,
    "population": 37816
  },
  {
    "name": "Vellinge",
    "lat": 55.47124,
    "lng": 13.01971,
    "population": 6496
  },
  {
    "name": "Velanda",
    "lat": 59.2,
    "lng": 15.06667,
    "population": 563
  },
  {
    "name": "Velanda",
    "lat": 58.22883,
    "lng": 12.30986,
    "population": 592
  },
  {
    "name": "Vejbystrand",
    "lat": 56.31778,
    "lng": 12.76722,
    "population": 2764
  },
  {
    "name": "Veinge",
    "lat": 56.55,
    "lng": 13.06667,
    "population": 1417
  },
  {
    "name": "Vegby",
    "lat": 57.68333,
    "lng": 13.38333,
    "population": 575
  },
  {
    "name": "Vedum",
    "lat": 58.16667,
    "lng": 12.98333,
    "population": 960
  },
  {
    "name": "Vedevåg",
    "lat": 59.5269,
    "lng": 15.29254,
    "population": 753
  },
  {
    "name": "Veddige",
    "lat": 57.26591,
    "lng": 12.3322,
    "population": 2260
  },
  {
    "name": "Veberöd",
    "lat": 55.63333,
    "lng": 13.48333,
    "population": 4850
  },
  {
    "name": "Våxtorp",
    "lat": 56.41678,
    "lng": 13.12008,
    "population": 987
  },
  {
    "name": "Växjö Kommun",
    "lat": 56.9453,
    "lng": 14.89981,
    "population": 98334
  },
  {
    "name": "Växjö",
    "lat": 56.87767,
    "lng": 14.80906,
    "population": 71282
  },
  {
    "name": "Vaxholms Kommun",
    "lat": 59.40386,
    "lng": 18.34167,
    "population": 11822
  },
  {
    "name": "Vaxholm",
    "lat": 59.40225,
    "lng": 18.35317,
    "population": 4849
  },
  {
    "name": "Vattubrinken",
    "lat": 59.24358,
    "lng": 17.57773,
    "population": 356
  },
  {
    "name": "Vattnäs",
    "lat": 61.05,
    "lng": 14.6,
    "population": 345
  },
  {
    "name": "Vattjom",
    "lat": 63.03333,
    "lng": 14.4,
    "population": 499
  },
  {
    "name": "Vattjom",
    "lat": 62.36667,
    "lng": 17,
    "population": 563
  },
  {
    "name": "Vattholma",
    "lat": 60.01667,
    "lng": 17.73333,
    "population": 1410
  },
  {
    "name": "Västra Torup",
    "lat": 56.15,
    "lng": 13.48333,
    "population": 210
  },
  {
    "name": "Västra Tommarp",
    "lat": 55.4,
    "lng": 13.1,
    "population": 286
  },
  {
    "name": "Västra Klagstorp",
    "lat": 55.53333,
    "lng": 12.98333,
    "population": 266
  },
  {
    "name": "Västra Karup",
    "lat": 56.41667,
    "lng": 12.75,
    "population": 552
  },
  {
    "name": "Västra Karaby",
    "lat": 55.81078,
    "lng": 13.05335,
    "population": 244
  },
  {
    "name": "Västra Ingelstad",
    "lat": 55.49108,
    "lng": 13.1121,
    "population": 824
  },
  {
    "name": "Västra Husby",
    "lat": 58.48373,
    "lng": 16.17548,
    "population": 488
  },
  {
    "name": "Västra Frölunda",
    "lat": 57.64667,
    "lng": 11.92944,
    "population": 15924
  },
  {
    "name": "Västra Ämtervik",
    "lat": 59.72595,
    "lng": 13.14514,
    "population": 382
  },
  {
    "name": "Västmanland County",
    "lat": 59.75,
    "lng": 16.33333,
    "population": 320335
  },
  {
    "name": "Västerviks Kommun",
    "lat": 57.85242,
    "lng": 16.3894,
    "population": 36447
  },
  {
    "name": "Västervik",
    "lat": 57.7584,
    "lng": 16.63733,
    "population": 21178
  },
  {
    "name": "Västernorrland County",
    "lat": 63,
    "lng": 17.5,
    "population": 242148
  },
  {
    "name": "Västermyckeläng",
    "lat": 61.21348,
    "lng": 14.03134,
    "population": 382
  },
  {
    "name": "Västerlösa",
    "lat": 58.8,
    "lng": 15.53333,
    "population": 214
  },
  {
    "name": "Västerlösa",
    "lat": 58.41667,
    "lng": 15.33333,
    "population": 207
  },
  {
    "name": "Västerljung",
    "lat": 58.92138,
    "lng": 17.45008,
    "population": 377
  },
  {
    "name": "Västerhus",
    "lat": 63.32363,
    "lng": 18.55213,
    "population": 275
  },
  {
    "name": "Västerfärnebo",
    "lat": 59.94609,
    "lng": 16.27794,
    "population": 533
  },
  {
    "name": "Västerby",
    "lat": 63.31667,
    "lng": 18.31667,
    "population": 371
  },
  {
    "name": "Västerby",
    "lat": 60.31667,
    "lng": 15.91667,
    "population": 383
  },
  {
    "name": "Västerbotten County",
    "lat": 65,
    "lng": 17.5,
    "population": 234817
  },
  {
    "name": "Västerberg",
    "lat": 61.21667,
    "lng": 16.51667,
    "population": 238
  },
  {
    "name": "Västerberg",
    "lat": 60.6,
    "lng": 16.55,
    "population": 228
  },
  {
    "name": "Västerås",
    "lat": 59.64914,
    "lng": 16.56445,
    "population": 160634
  },
  {
    "name": "Västerås",
    "lat": 59.61617,
    "lng": 16.55276,
    "population": 127799
  },
  {
    "name": "Västanvik",
    "lat": 60.73333,
    "lng": 14.95,
    "population": 472
  },
  {
    "name": "Västanvik",
    "lat": 58.68333,
    "lng": 14.93333,
    "population": 201
  },
  {
    "name": "Vassmolösa",
    "lat": 56.6,
    "lng": 16.16667,
    "population": 524
  },
  {
    "name": "Väskinde",
    "lat": 57.68862,
    "lng": 18.42783,
    "population": 337
  },
  {
    "name": "Väse",
    "lat": 59.38249,
    "lng": 13.85093,
    "population": 519
  },
  {
    "name": "Vasastaden",
    "lat": 59.35,
    "lng": 18.03333,
    "population": 58458
  },
  {
    "name": "Vartofta",
    "lat": 58.1,
    "lng": 13.63333,
    "population": 529
  },
  {
    "name": "Vårsta",
    "lat": 59.16528,
    "lng": 17.79722,
    "population": 2470
  },
  {
    "name": "Värsås",
    "lat": 58.35,
    "lng": 14.05,
    "population": 616
  },
  {
    "name": "Väröbacka",
    "lat": 57.25,
    "lng": 12.18333,
    "population": 765
  },
  {
    "name": "Varnhem",
    "lat": 58.38333,
    "lng": 13.65,
    "population": 662
  },
  {
    "name": "Värnamo Kommun",
    "lat": 57.17128,
    "lng": 14.05317,
    "population": 34542
  },
  {
    "name": "Värnamo",
    "lat": 57.18604,
    "lng": 14.04001,
    "population": 19061
  },
  {
    "name": "Värmland County",
    "lat": 59.75,
    "lng": 13.25,
    "population": 322034
  },
  {
    "name": "Värmdö Kommun",
    "lat": 59.31614,
    "lng": 18.70414,
    "population": 46635
  },
  {
    "name": "Värmdö",
    "lat": 59.35,
    "lng": 18.5,
    "population": 37376
  },
  {
    "name": "Väring",
    "lat": 58.50486,
    "lng": 13.96877,
    "population": 641
  },
  {
    "name": "Vargön",
    "lat": 58.35599,
    "lng": 12.3906,
    "population": 4981
  },
  {
    "name": "Vårgårda Kommun",
    "lat": 57.98769,
    "lng": 12.76888,
    "population": 12474
  },
  {
    "name": "Vårgårda",
    "lat": 58.03706,
    "lng": 12.80907,
    "population": 5384
  },
  {
    "name": "Varekil",
    "lat": 58.12293,
    "lng": 11.70777,
    "population": 912
  },
  {
    "name": "Vårby",
    "lat": 59.26671,
    "lng": 17.88407,
    "population": 10115
  },
  {
    "name": "Varbergs Kommun",
    "lat": 57.17208,
    "lng": 12.41797,
    "population": 69070
  },
  {
    "name": "Varberg",
    "lat": 57.10557,
    "lng": 12.25078,
    "population": 34248
  },
  {
    "name": "Vara Kommun",
    "lat": 58.24391,
    "lng": 13.07285,
    "population": 16088
  },
  {
    "name": "Vara",
    "lat": 58.26234,
    "lng": 12.95413,
    "population": 4052
  },
  {
    "name": "Vaplan",
    "lat": 63.33333,
    "lng": 14.21667,
    "population": 259
  },
  {
    "name": "Vansbro Kommun",
    "lat": 60.46117,
    "lng": 14.27836,
    "population": 6752
  },
  {
    "name": "Vansbro",
    "lat": 60.50893,
    "lng": 14.22458,
    "population": 2042
  },
  {
    "name": "Vännäs Kommun",
    "lat": 63.9496,
    "lng": 19.70834,
    "population": 9132
  },
  {
    "name": "Vännäsby",
    "lat": 63.91564,
    "lng": 19.82438,
    "population": 1581
  },
  {
    "name": "Vännäs",
    "lat": 63.90676,
    "lng": 19.75712,
    "population": 4373
  },
  {
    "name": "Vankiva",
    "lat": 56.20083,
    "lng": 13.7484,
    "population": 374
  },
  {
    "name": "Vånga",
    "lat": 59.78333,
    "lng": 16.91667,
    "population": 224
  },
  {
    "name": "Vånga",
    "lat": 56.18333,
    "lng": 14.36667,
    "population": 241
  },
  {
    "name": "Vänersborgs Kommun",
    "lat": 58.39828,
    "lng": 12.27554,
    "population": 40041
  },
  {
    "name": "Vänersborg",
    "lat": 58.38075,
    "lng": 12.3234,
    "population": 23119
  },
  {
    "name": "Våmhus",
    "lat": 61.11491,
    "lng": 14.4718,
    "population": 831
  },
  {
    "name": "Valskog",
    "lat": 59.44179,
    "lng": 15.94429,
    "population": 693
  },
  {
    "name": "Vallvik",
    "lat": 61.18333,
    "lng": 17.18333,
    "population": 242
  },
  {
    "name": "Vallsta",
    "lat": 61.51694,
    "lng": 16.36465,
    "population": 288
  },
  {
    "name": "Vallkärra",
    "lat": 55.73881,
    "lng": 13.17698,
    "population": 412
  },
  {
    "name": "Vallentuna Kommun",
    "lat": 59.59146,
    "lng": 18.21,
    "population": 35119
  },
  {
    "name": "Vallentuna",
    "lat": 59.53436,
    "lng": 18.07758,
    "population": 31937
  },
  {
    "name": "Vallda",
    "lat": 57.4775,
    "lng": 12.00139,
    "population": 3929
  },
  {
    "name": "Vallberga",
    "lat": 56.46667,
    "lng": 13.01667,
    "population": 655
  },
  {
    "name": "Vallargärdet",
    "lat": 59.47744,
    "lng": 13.58505,
    "population": 648
  },
  {
    "name": "Vallåkra",
    "lat": 55.96133,
    "lng": 12.85611,
    "population": 800
  },
  {
    "name": "Valla",
    "lat": 63.55,
    "lng": 13.8,
    "population": 1584
  },
  {
    "name": "Valla",
    "lat": 59.01667,
    "lng": 16.38333,
    "population": 1485
  },
  {
    "name": "Valje",
    "lat": 56.06279,
    "lng": 14.54388,
    "population": 1067
  },
  {
    "name": "Valinge",
    "lat": 57.16667,
    "lng": 12.38333,
    "population": 280
  },
  {
    "name": "Valdemarsviks Kommun",
    "lat": 58.2,
    "lng": 16.6,
    "population": 7525
  },
  {
    "name": "Valdemarsvik",
    "lat": 58.2031,
    "lng": 16.60225,
    "population": 2685
  },
  {
    "name": "Valbo",
    "lat": 60.65,
    "lng": 17.03333,
    "population": 7147
  },
  {
    "name": "Vålberg",
    "lat": 59.39145,
    "lng": 13.18633,
    "population": 2848
  },
  {
    "name": "Valåsen",
    "lat": 59.31667,
    "lng": 14.58333,
    "population": 321
  },
  {
    "name": "Väjern",
    "lat": 58.38333,
    "lng": 11.26667,
    "population": 659
  },
  {
    "name": "Vagnhärad",
    "lat": 58.94587,
    "lng": 17.48757,
    "population": 3397
  },
  {
    "name": "Vaggeryds Kommun",
    "lat": 57.47206,
    "lng": 14.12797,
    "population": 14825
  },
  {
    "name": "Vaggeryd",
    "lat": 57.49807,
    "lng": 14.14842,
    "population": 5122
  },
  {
    "name": "Vadstena Kommun",
    "lat": 58.40783,
    "lng": 14.86162,
    "population": 7490
  },
  {
    "name": "Vadstena",
    "lat": 58.44863,
    "lng": 14.88969,
    "population": 5674
  },
  {
    "name": "Väderstad",
    "lat": 58.31667,
    "lng": 14.91667,
    "population": 573
  },
  {
    "name": "Vad",
    "lat": 60.02756,
    "lng": 15.65457,
    "population": 291
  },
  {
    "name": "Väckelsång",
    "lat": 56.63333,
    "lng": 14.91667,
    "population": 954
  },
  {
    "name": "Utvalnäs",
    "lat": 60.75,
    "lng": 17.33333,
    "population": 411
  },
  {
    "name": "Utvälinge",
    "lat": 56.21667,
    "lng": 12.78333,
    "population": 238
  },
  {
    "name": "Utby",
    "lat": 63.23333,
    "lng": 18.63333,
    "population": 219
  },
  {
    "name": "Utby",
    "lat": 58.33272,
    "lng": 11.7868,
    "population": 410
  },
  {
    "name": "Utansjö",
    "lat": 62.78139,
    "lng": 17.93278,
    "population": 209
  },
  {
    "name": "Urshult",
    "lat": 56.53333,
    "lng": 14.78333,
    "population": 942
  },
  {
    "name": "Uppsala",
    "lat": 59.85882,
    "lng": 17.63889,
    "population": 177074
  },
  {
    "name": "Uppvidinge Kommun",
    "lat": 57.03442,
    "lng": 15.44727,
    "population": 9061
  },
  {
    "name": "Uppsala County",
    "lat": 60,
    "lng": 17.75,
    "population": 404589
  },
  {
    "name": "Uppsala Kommun",
    "lat": 59.96425,
    "lng": 17.77395,
    "population": 248016
  },
  {
    "name": "Upplands Väsby kommun",
    "lat": 59.52382,
    "lng": 17.91001,
    "population": 50323
  },
  {
    "name": "Upplands Väsby",
    "lat": 59.51839,
    "lng": 17.91128,
    "population": 36534
  },
  {
    "name": "Upplands-Bro Kommun",
    "lat": 59.49095,
    "lng": 17.74979,
    "population": 32868
  },
  {
    "name": "Upplanda",
    "lat": 60.22465,
    "lng": 17.73241,
    "population": 222
  },
  {
    "name": "Upphärad",
    "lat": 58.15807,
    "lng": 12.30476,
    "population": 572
  },
  {
    "name": "Hjärup",
    "lat": 55.6688,
    "lng": 13.13931,
    "population": 4744
  },
  {
    "name": "Unnaryd",
    "lat": 56.95,
    "lng": 13.51667,
    "population": 823
  },
  {
    "name": "Undersåker",
    "lat": 63.31722,
    "lng": 13.24847,
    "population": 573
  },
  {
    "name": "Undenäs",
    "lat": 58.6583,
    "lng": 14.40436,
    "population": 238
  },
  {
    "name": "Ulvkälla",
    "lat": 62.024,
    "lng": 14.36743,
    "population": 420
  },
  {
    "name": "Ulvåker",
    "lat": 58.4746,
    "lng": 13.92797,
    "population": 256
  },
  {
    "name": "Ulrika",
    "lat": 58.12545,
    "lng": 15.43111,
    "population": 204
  },
  {
    "name": "Ulricehamns Kommun",
    "lat": 57.82059,
    "lng": 13.46116,
    "population": 24985
  },
  {
    "name": "Ulricehamn",
    "lat": 57.79159,
    "lng": 13.41422,
    "population": 10629
  },
  {
    "name": "Ullervad",
    "lat": 58.66667,
    "lng": 13.86667,
    "population": 885
  },
  {
    "name": "Ullared",
    "lat": 57.13333,
    "lng": 12.71667,
    "population": 699
  },
  {
    "name": "Uddheden",
    "lat": 59.94553,
    "lng": 12.91085,
    "population": 266
  },
  {
    "name": "Uddevalla Kommun",
    "lat": 58.34099,
    "lng": 11.84744,
    "population": 57010
  },
  {
    "name": "Uddevalla",
    "lat": 58.34784,
    "lng": 11.9424,
    "population": 34781
  },
  {
    "name": "Uddeholm",
    "lat": 60.01667,
    "lng": 13.61667,
    "population": 619
  },
  {
    "name": "Uddebo",
    "lat": 57.47366,
    "lng": 13.26245,
    "population": 220
  },
  {
    "name": "Ucklum",
    "lat": 58.08333,
    "lng": 11.95,
    "population": 531
  },
  {
    "name": "Tystberga",
    "lat": 58.85,
    "lng": 17.23306,
    "population": 869
  },
  {
    "name": "Tyringe",
    "lat": 56.16037,
    "lng": 13.59811,
    "population": 4712
  },
  {
    "name": "Tyresö Kommun",
    "lat": 59.24148,
    "lng": 18.28074,
    "population": 49179
  },
  {
    "name": "Tylösand",
    "lat": 56.65,
    "lng": 12.73333,
    "population": 387
  },
  {
    "name": "Tygelsjö",
    "lat": 55.51667,
    "lng": 13,
    "population": 3420
  },
  {
    "name": "Tye",
    "lat": 59.34764,
    "lng": 13.56196,
    "population": 247
  },
  {
    "name": "Tving",
    "lat": 56.30532,
    "lng": 15.47129,
    "population": 548
  },
  {
    "name": "Tvärskog",
    "lat": 56.62119,
    "lng": 16.0441,
    "population": 399
  },
  {
    "name": "Tvärålund",
    "lat": 64.09491,
    "lng": 19.66905,
    "population": 338
  },
  {
    "name": "Tvååker",
    "lat": 57.04147,
    "lng": 12.3995,
    "population": 2640
  },
  {
    "name": "Tureholm",
    "lat": 59.31667,
    "lng": 17.71667,
    "population": 799
  },
  {
    "name": "Tunnerstad",
    "lat": 58.05083,
    "lng": 14.34316,
    "population": 322
  },
  {
    "name": "Tunadal",
    "lat": 62.41417,
    "lng": 17.37944,
    "population": 367
  },
  {
    "name": "Tuna",
    "lat": 62.64506,
    "lng": 17.33063,
    "population": 249
  },
  {
    "name": "Tuna",
    "lat": 59.36667,
    "lng": 17.25,
    "population": 270
  },
  {
    "name": "Tuna",
    "lat": 59.25345,
    "lng": 17.47234,
    "population": 404
  },
  {
    "name": "Tuna",
    "lat": 57.57639,
    "lng": 16.1054,
    "population": 212
  },
  {
    "name": "Tuna",
    "lat": 55.91667,
    "lng": 12.7,
    "population": 349
  },
  {
    "name": "Tun",
    "lat": 58.43333,
    "lng": 12.73333,
    "population": 207
  },
  {
    "name": "Tumlehed",
    "lat": 57.73237,
    "lng": 11.73778,
    "population": 623
  },
  {
    "name": "Tumba",
    "lat": 59.19858,
    "lng": 17.83317,
    "population": 40832
  },
  {
    "name": "Tullinge",
    "lat": 59.2,
    "lng": 17.9,
    "population": 16000
  },
  {
    "name": "Tulebo",
    "lat": 57.61667,
    "lng": 12.1,
    "population": 229
  },
  {
    "name": "Trosa",
    "lat": 58.89621,
    "lng": 17.54812,
    "population": 5836
  },
  {
    "name": "Trönö",
    "lat": 61.39581,
    "lng": 16.83372,
    "population": 215
  },
  {
    "name": "Trönningenäs",
    "lat": 57.13846,
    "lng": 12.22596,
    "population": 743
  },
  {
    "name": "Trönninge",
    "lat": 57.14474,
    "lng": 12.29253,
    "population": 847
  },
  {
    "name": "Trönninge",
    "lat": 56.61667,
    "lng": 12.93333,
    "population": 1569
  },
  {
    "name": "Trollhättan",
    "lat": 58.21208,
    "lng": 12.35033,
    "population": 59003
  },
  {
    "name": "Trollhättan",
    "lat": 58.28365,
    "lng": 12.28864,
    "population": 48573
  },
  {
    "name": "Gimo",
    "lat": 60.17304,
    "lng": 18.18507,
    "population": 2698
  },
  {
    "name": "Trödje",
    "lat": 60.81667,
    "lng": 17.2,
    "population": 337
  },
  {
    "name": "Trelleborgs Kommun",
    "lat": 55.41274,
    "lng": 13.26859,
    "population": 47269
  },
  {
    "name": "Trelleborg",
    "lat": 55.37514,
    "lng": 13.15691,
    "population": 29316
  },
  {
    "name": "Trekanten",
    "lat": 56.7,
    "lng": 16.11667,
    "population": 1599
  },
  {
    "name": "Trehörningsjö",
    "lat": 63.7,
    "lng": 18.8,
    "population": 136
  },
  {
    "name": "Tråvad",
    "lat": 58.25,
    "lng": 13.08333,
    "population": 451
  },
  {
    "name": "Träslövsläge",
    "lat": 57.05417,
    "lng": 12.27899,
    "population": 1985
  },
  {
    "name": "Traryd",
    "lat": 56.57864,
    "lng": 13.74916,
    "population": 655
  },
  {
    "name": "Transtrand",
    "lat": 61.08938,
    "lng": 13.31161,
    "population": 369
  },
  {
    "name": "Tranholmen",
    "lat": 59.37571,
    "lng": 18.0871,
    "population": 384
  },
  {
    "name": "Trångsviken",
    "lat": 63.33333,
    "lng": 14.01667,
    "population": 272
  },
  {
    "name": "Trångbo",
    "lat": 60.48334,
    "lng": 16.60249,
    "population": 4
  },
  {
    "name": "Tranemo Kommun",
    "lat": 57.5,
    "lng": 13.43333,
    "population": 11839
  },
  {
    "name": "Tranemo",
    "lat": 57.48333,
    "lng": 13.35,
    "population": 3224
  },
  {
    "name": "Tranås Kommun",
    "lat": 58.02906,
    "lng": 14.83456,
    "population": 18604
  },
  {
    "name": "Tranås",
    "lat": 58.03717,
    "lng": 14.9782,
    "population": 14550
  },
  {
    "name": "Trädet",
    "lat": 57.98333,
    "lng": 13.53333,
    "population": 296
  },
  {
    "name": "Totra",
    "lat": 60.91667,
    "lng": 17.06667,
    "population": 285
  },
  {
    "name": "Totebo",
    "lat": 57.63068,
    "lng": 16.18864,
    "population": 237
  },
  {
    "name": "Tösse",
    "lat": 58.97201,
    "lng": 12.64333,
    "population": 346
  },
  {
    "name": "Torup",
    "lat": 56.95663,
    "lng": 13.07725,
    "population": 1245
  },
  {
    "name": "Tortuna",
    "lat": 59.67625,
    "lng": 16.72262,
    "population": 420
  },
  {
    "name": "Torslanda",
    "lat": 57.72432,
    "lng": 11.77013,
    "population": 10129
  },
  {
    "name": "Torshälla Huvud",
    "lat": 59.45589,
    "lng": 16.46087,
    "population": 492
  },
  {
    "name": "Torshälla",
    "lat": 59.41667,
    "lng": 16.46667,
    "population": 8928
  },
  {
    "name": "Torsebro",
    "lat": 56.1,
    "lng": 14.11667,
    "population": 262
  },
  {
    "name": "Torsby Kommun",
    "lat": 60.56939,
    "lng": 12.93837,
    "population": 11321
  },
  {
    "name": "Torsby",
    "lat": 60.13527,
    "lng": 13.0082,
    "population": 4419
  },
  {
    "name": "Torsås Kommun",
    "lat": 56.42649,
    "lng": 15.89128,
    "population": 6984
  },
  {
    "name": "Torsås",
    "lat": 56.41251,
    "lng": 15.99844,
    "population": 2000
  },
  {
    "name": "Torsång",
    "lat": 60.46667,
    "lng": 15.56667,
    "population": 712
  },
  {
    "name": "Torsåker",
    "lat": 63.06667,
    "lng": 17.75,
    "population": 873
  },
  {
    "name": "Torsåker",
    "lat": 60.5109,
    "lng": 16.47069,
    "population": 848
  },
  {
    "name": "Torreby",
    "lat": 58.45,
    "lng": 11.6,
    "population": 226
  },
  {
    "name": "Torpshammar",
    "lat": 62.47591,
    "lng": 16.32461,
    "population": 477
  },
  {
    "name": "Torpsbruk",
    "lat": 57.03371,
    "lng": 14.57289,
    "population": 369
  },
  {
    "name": "Torpa",
    "lat": 57.18982,
    "lng": 12.28205,
    "population": 229
  },
  {
    "name": "Tormestorp",
    "lat": 56.1135,
    "lng": 13.74516,
    "population": 1043
  },
  {
    "name": "Torhamn",
    "lat": 56.1,
    "lng": 15.83333,
    "population": 559
  },
  {
    "name": "Törestorp",
    "lat": 58.31667,
    "lng": 13.06667,
    "population": 233
  },
  {
    "name": "Torestorp",
    "lat": 58.3,
    "lng": 13.96667,
    "population": 389
  },
  {
    "name": "Torestorp",
    "lat": 57.38716,
    "lng": 12.67959,
    "population": 412
  },
  {
    "name": "Törestorp",
    "lat": 57.29892,
    "lng": 13.85037,
    "population": 262
  },
  {
    "name": "Torekov",
    "lat": 56.425,
    "lng": 12.63333,
    "population": 1078
  },
  {
    "name": "Töreboda Kommun",
    "lat": 58.67996,
    "lng": 14.16139,
    "population": 9043
  },
  {
    "name": "Töreboda",
    "lat": 58.70739,
    "lng": 14.12597,
    "population": 4626
  },
  {
    "name": "Torbjörntorp",
    "lat": 58.21024,
    "lng": 13.60597,
    "population": 466
  },
  {
    "name": "Torarp",
    "lat": 56.81667,
    "lng": 13.6,
    "population": 273
  },
  {
    "name": "Tomtebo",
    "lat": 60.41667,
    "lng": 15.71667,
    "population": 633
  },
  {
    "name": "Tomelilla Kommun",
    "lat": 55.61963,
    "lng": 14.01975,
    "population": 13639
  },
  {
    "name": "Tomelilla",
    "lat": 55.54293,
    "lng": 13.9546,
    "population": 6826
  },
  {
    "name": "Töllsjö",
    "lat": 57.8,
    "lng": 12.63333,
    "population": 409
  },
  {
    "name": "Tollered",
    "lat": 57.95,
    "lng": 12.1,
    "population": 863
  },
  {
    "name": "Tollered",
    "lat": 57.81667,
    "lng": 12.41667,
    "population": 920
  },
  {
    "name": "Tollarp1",
    "lat": 56.16667,
    "lng": 14.28333,
    "population": 3170
  },
  {
    "name": "Tollarp",
    "lat": 55.93333,
    "lng": 13.98333,
    "population": 3404
  },
  {
    "name": "Toftbyn",
    "lat": 60.71667,
    "lng": 15.78333,
    "population": 305
  },
  {
    "name": "Tofta",
    "lat": 58.51667,
    "lng": 13.11667,
    "population": 350
  },
  {
    "name": "Tofta",
    "lat": 57.18333,
    "lng": 12.3,
    "population": 486
  },
  {
    "name": "Töcksfors",
    "lat": 59.50816,
    "lng": 11.84431,
    "population": 1221
  },
  {
    "name": "Tobo",
    "lat": 60.2584,
    "lng": 17.65606,
    "population": 610
  },
  {
    "name": "Tjuvkil",
    "lat": 57.9,
    "lng": 11.73333,
    "population": 1013
  },
  {
    "name": "Tjörns Kommun",
    "lat": 58.00519,
    "lng": 11.63101,
    "population": 16092
  },
  {
    "name": "Tjörnarp",
    "lat": 55.99543,
    "lng": 13.6279,
    "population": 829
  },
  {
    "name": "Tjörn",
    "lat": 58,
    "lng": 11.63333,
    "population": 15774
  },
  {
    "name": "Tjällmo",
    "lat": 58.71667,
    "lng": 15.35,
    "population": 518
  },
  {
    "name": "Tingstäde",
    "lat": 57.73372,
    "lng": 18.60662,
    "population": 229
  },
  {
    "name": "Tingsryds Kommun",
    "lat": 56.53333,
    "lng": 14.96667,
    "population": 11966
  },
  {
    "name": "Tingsryd",
    "lat": 56.5247,
    "lng": 14.97902,
    "population": 3087
  },
  {
    "name": "Timsfors",
    "lat": 56.48333,
    "lng": 13.58333,
    "population": 609
  },
  {
    "name": "Timrå Kommun",
    "lat": 62.61598,
    "lng": 17.37848,
    "population": 17521
  },
  {
    "name": "Timrå",
    "lat": 62.48654,
    "lng": 17.32613,
    "population": 10495
  },
  {
    "name": "Timmersdala",
    "lat": 58.53333,
    "lng": 13.75,
    "population": 895
  },
  {
    "name": "Timmernabben",
    "lat": 56.96667,
    "lng": 16.43333,
    "population": 1357
  },
  {
    "name": "Timmele",
    "lat": 57.85946,
    "lng": 13.42891,
    "population": 788
  },
  {
    "name": "Tillberga",
    "lat": 59.68333,
    "lng": 16.61667,
    "population": 2151
  },
  {
    "name": "Tierps kommun",
    "lat": 60.37206,
    "lng": 17.63629,
    "population": 21104
  },
  {
    "name": "Tierp",
    "lat": 60.34269,
    "lng": 17.51812,
    "population": 5826
  },
  {
    "name": "Tidan",
    "lat": 58.57467,
    "lng": 14.00495,
    "population": 989
  },
  {
    "name": "Tidaholms kommun",
    "lat": 58.14842,
    "lng": 13.94336,
    "population": 12805
  },
  {
    "name": "Tidaholm",
    "lat": 58.18035,
    "lng": 13.95824,
    "population": 8175
  },
  {
    "name": "Tibro Kommun",
    "lat": 58.4492,
    "lng": 14.22664,
    "population": 11338
  },
  {
    "name": "Tibro",
    "lat": 58.42453,
    "lng": 14.16162,
    "population": 8396
  },
  {
    "name": "Tenhult",
    "lat": 57.70761,
    "lng": 14.32205,
    "population": 3112
  },
  {
    "name": "Tegelhagen",
    "lat": 59.40841,
    "lng": 17.98091,
    "population": 500
  },
  {
    "name": "Teckomatorp",
    "lat": 55.86667,
    "lng": 13.08333,
    "population": 1703
  },
  {
    "name": "Tävelsås",
    "lat": 56.76931,
    "lng": 14.82587,
    "population": 351
  },
  {
    "name": "Tåstarp",
    "lat": 56.28333,
    "lng": 12.95,
    "population": 221
  },
  {
    "name": "Tärnsjö",
    "lat": 60.15,
    "lng": 16.93333,
    "population": 1174
  },
  {
    "name": "Tärnaby",
    "lat": 65.7115,
    "lng": 15.25838,
    "population": 492
  },
  {
    "name": "Tanums Kommun",
    "lat": 58.71656,
    "lng": 11.42571,
    "population": 12773
  },
  {
    "name": "Tanumshede",
    "lat": 58.72385,
    "lng": 11.32587,
    "population": 1774
  },
  {
    "name": "Tånnö",
    "lat": 57.1,
    "lng": 14.05,
    "population": 201
  },
  {
    "name": "Tänndalen",
    "lat": 62.54372,
    "lng": 12.33266,
    "population": 52
  },
  {
    "name": "Tännäs",
    "lat": 62.44148,
    "lng": 12.67548,
    "population": 111
  },
  {
    "name": "Tångaberg",
    "lat": 57.17358,
    "lng": 12.22753,
    "population": 965
  },
  {
    "name": "Tånga",
    "lat": 56.2,
    "lng": 12.76667,
    "population": 225
  },
  {
    "name": "Tandsbyn",
    "lat": 63.00097,
    "lng": 14.7466,
    "population": 453
  },
  {
    "name": "Tallträsk",
    "lat": 64.61299,
    "lng": 18.18958,
    "population": 16
  },
  {
    "name": "Tallboda",
    "lat": 58.42521,
    "lng": 15.68154,
    "population": 3311
  },
  {
    "name": "Tällberg",
    "lat": 60.81667,
    "lng": 15,
    "population": 875
  },
  {
    "name": "Tallåsen",
    "lat": 64.3,
    "lng": 18.83333,
    "population": 608
  },
  {
    "name": "Tallåsen",
    "lat": 61.86667,
    "lng": 16.01667,
    "population": 586
  },
  {
    "name": "Täljö",
    "lat": 59.47273,
    "lng": 18.23452,
    "population": 410
  },
  {
    "name": "Tågarp",
    "lat": 55.92524,
    "lng": 12.9546,
    "population": 417
  },
  {
    "name": "Täby Kommun",
    "lat": 59.43739,
    "lng": 18.0653,
    "population": 77744
  },
  {
    "name": "Täby",
    "lat": 59.4439,
    "lng": 18.06872,
    "population": 58123
  },
  {
    "name": "Taberg",
    "lat": 57.67722,
    "lng": 14.08876,
    "population": 4486
  },
  {
    "name": "Sysslebäck",
    "lat": 60.7244,
    "lng": 12.87457,
    "population": 473
  },
  {
    "name": "Sylta",
    "lat": 59.53333,
    "lng": 15.98333,
    "population": 763
  },
  {
    "name": "Sya",
    "lat": 58.334,
    "lng": 15.222,
    "population": 308
  },
  {
    "name": "Svenstorp",
    "lat": 58.91667,
    "lng": 16.31667,
    "population": 238
  },
  {
    "name": "Svenstavik",
    "lat": 62.76667,
    "lng": 14.43535,
    "population": 916
  },
  {
    "name": "Svenshögen",
    "lat": 58.15,
    "lng": 11.93333,
    "population": 452
  },
  {
    "name": "Svenljunga Kommun",
    "lat": 57.39249,
    "lng": 13.05216,
    "population": 10747
  },
  {
    "name": "Svenljunga",
    "lat": 57.49551,
    "lng": 13.11078,
    "population": 3592
  },
  {
    "name": "Sveg",
    "lat": 62.03407,
    "lng": 14.36577,
    "population": 2543
  },
  {
    "name": "Svedala Kommun",
    "lat": 55.54324,
    "lng": 13.26859,
    "population": 19822
  },
  {
    "name": "Svedala",
    "lat": 55.50788,
    "lng": 13.23515,
    "population": 11796
  },
  {
    "name": "Svedåker",
    "lat": 61.46592,
    "lng": 16.41932,
    "population": 6
  },
  {
    "name": "Svartvik",
    "lat": 62.58639,
    "lng": 17.90849,
    "population": 991
  },
  {
    "name": "Svarttjärn",
    "lat": 65.8,
    "lng": 16.93333,
    "population": 5
  },
  {
    "name": "Svärtinge",
    "lat": 58.65507,
    "lng": 16.02823,
    "population": 3326
  },
  {
    "name": "Svarte",
    "lat": 55.43184,
    "lng": 13.71394,
    "population": 921
  },
  {
    "name": "Svartå",
    "lat": 59.13333,
    "lng": 14.51667,
    "population": 456
  },
  {
    "name": "Svärdsjö",
    "lat": 60.74022,
    "lng": 15.90173,
    "population": 1335
  },
  {
    "name": "Svanvik",
    "lat": 58.57103,
    "lng": 14.49886,
    "population": 324
  },
  {
    "name": "Svanskog",
    "lat": 59.18333,
    "lng": 12.55,
    "population": 485
  },
  {
    "name": "Svängsta",
    "lat": 56.26667,
    "lng": 14.76667,
    "population": 1904
  },
  {
    "name": "Svanesund",
    "lat": 58.14292,
    "lng": 11.81821,
    "population": 1946
  },
  {
    "name": "Svaneholm",
    "lat": 57.61667,
    "lng": 12.81667,
    "population": 1000
  },
  {
    "name": "Svanberga",
    "lat": 59.84431,
    "lng": 18.66643,
    "population": 524
  },
  {
    "name": "Svalsta",
    "lat": 58.74273,
    "lng": 16.86978,
    "population": 1095
  },
  {
    "name": "Svalövs Kommun",
    "lat": 55.96497,
    "lng": 13.13173,
    "population": 14543
  },
  {
    "name": "Svalöv",
    "lat": 55.9134,
    "lng": 13.10762,
    "population": 3852
  },
  {
    "name": "Surte",
    "lat": 57.82533,
    "lng": 12.01604,
    "population": 6003
  },
  {
    "name": "Surahammars Kommun",
    "lat": 59.77487,
    "lng": 16.11885,
    "population": 9845
  },
  {
    "name": "Surahammar",
    "lat": 59.70725,
    "lng": 16.22188,
    "population": 6270
  },
  {
    "name": "Sunningen",
    "lat": 58.33333,
    "lng": 11.83333,
    "population": 589
  },
  {
    "name": "Sunnemo",
    "lat": 59.88333,
    "lng": 13.71667,
    "population": 276
  },
  {
    "name": "Sunne Kommun",
    "lat": 59.90378,
    "lng": 13.0442,
    "population": 13356
  },
  {
    "name": "Sunne",
    "lat": 59.83764,
    "lng": 13.14302,
    "population": 5026
  },
  {
    "name": "Sunnansjö",
    "lat": 64.09002,
    "lng": 19.34581,
    "population": 557
  },
  {
    "name": "Sunnansjö",
    "lat": 60.21667,
    "lng": 14.95,
    "population": 614
  },
  {
    "name": "Sundsvalls Kommun",
    "lat": 62.47912,
    "lng": 16.92651,
    "population": 99048
  },
  {
    "name": "Sundsvall",
    "lat": 62.39129,
    "lng": 17.3063,
    "population": 57606
  },
  {
    "name": "Sundsbyn",
    "lat": 59.4508,
    "lng": 11.86011,
    "population": 20
  },
  {
    "name": "Sundsbruk",
    "lat": 62.45806,
    "lng": 17.34889,
    "population": 2098
  },
  {
    "name": "Sundhultsbrunn",
    "lat": 57.92933,
    "lng": 14.91404,
    "population": 301
  },
  {
    "name": "Sundbybergs Kommun",
    "lat": 59.36669,
    "lng": 17.9702,
    "population": 56274
  },
  {
    "name": "Sundbyberg",
    "lat": 59.36128,
    "lng": 17.97114,
    "population": 34529
  },
  {
    "name": "Sundby",
    "lat": 59.5,
    "lng": 17.3,
    "population": 271
  },
  {
    "name": "Sundborn",
    "lat": 60.65,
    "lng": 15.76667,
    "population": 923
  },
  {
    "name": "Sund",
    "lat": 63.26667,
    "lng": 18.66667,
    "population": 330
  },
  {
    "name": "Sulvik",
    "lat": 59.68333,
    "lng": 12.4,
    "population": 375
  },
  {
    "name": "Styrsö",
    "lat": 57.61639,
    "lng": 11.78556,
    "population": 1324
  },
  {
    "name": "Sturkö",
    "lat": 56.08333,
    "lng": 15.7,
    "population": 1325
  },
  {
    "name": "Sturefors",
    "lat": 58.33333,
    "lng": 15.73333,
    "population": 2228
  },
  {
    "name": "Stugun",
    "lat": 63.16667,
    "lng": 15.6,
    "population": 599
  },
  {
    "name": "Strövelstorp",
    "lat": 56.16979,
    "lng": 12.83925,
    "population": 1207
  },
  {
    "name": "Strömsunds kommun",
    "lat": 64.24879,
    "lng": 15.29369,
    "population": 11023
  },
  {
    "name": "Strömsund",
    "lat": 63.85206,
    "lng": 15.55583,
    "population": 3690
  },
  {
    "name": "Strömstads Kommun",
    "lat": 58.94891,
    "lng": 11.25543,
    "population": 13482
  },
  {
    "name": "Strömstad",
    "lat": 58.93945,
    "lng": 11.1712,
    "population": 7176
  },
  {
    "name": "Strömsnäsbruk",
    "lat": 56.55,
    "lng": 13.71667,
    "population": 2246
  },
  {
    "name": "Guojkkasuoluoj",
    "lat": 65.64762,
    "lng": 18.09909,
    "population": 594
  },
  {
    "name": "Strömsholm",
    "lat": 59.52717,
    "lng": 16.243,
    "population": 676
  },
  {
    "name": "Strömsbruk",
    "lat": 61.87028,
    "lng": 17.31556,
    "population": 360
  },
  {
    "name": "Strömma",
    "lat": 59.28333,
    "lng": 18.53333,
    "population": 2468
  },
  {
    "name": "Striberg",
    "lat": 59.54543,
    "lng": 14.93287,
    "population": 312
  },
  {
    "name": "Stråssa",
    "lat": 59.73902,
    "lng": 15.19863,
    "population": 288
  },
  {
    "name": "Strångsjö",
    "lat": 58.90486,
    "lng": 16.19589,
    "population": 351
  },
  {
    "name": "Strängnäs Kommun",
    "lat": 59.36109,
    "lng": 17.08804,
    "population": 39313
  },
  {
    "name": "Strängnäs",
    "lat": 59.37741,
    "lng": 17.03119,
    "population": 13693
  },
  {
    "name": "Strålsnäs",
    "lat": 58.236,
    "lng": 15.08768,
    "population": 450
  },
  {
    "name": "Storvreta",
    "lat": 59.95933,
    "lng": 17.70588,
    "population": 6340
  },
  {
    "name": "Storvik",
    "lat": 60.58333,
    "lng": 16.53333,
    "population": 2202
  },
  {
    "name": "Storumans kommun",
    "lat": 65.45192,
    "lng": 16.2581,
    "population": 5577
  },
  {
    "name": "Storuman",
    "lat": 65.0959,
    "lng": 17.11731,
    "population": 2188
  },
  {
    "name": "Storlien",
    "lat": 63.31667,
    "lng": 12.1,
    "population": 116
  },
  {
    "name": "Storfors Kommun",
    "lat": 59.49478,
    "lng": 14.24733,
    "population": 3788
  },
  {
    "name": "Storfors",
    "lat": 59.53183,
    "lng": 14.27201,
    "population": 2218
  },
  {
    "name": "Storebro",
    "lat": 57.58333,
    "lng": 15.85,
    "population": 1011
  },
  {
    "name": "Stora Vika",
    "lat": 58.95569,
    "lng": 17.78644,
    "population": 695
  },
  {
    "name": "Stora Rör",
    "lat": 56.75583,
    "lng": 16.53271,
    "population": 209
  },
  {
    "name": "Stora Mellösa",
    "lat": 59.21667,
    "lng": 15.5,
    "population": 801
  },
  {
    "name": "Stora Mellby",
    "lat": 58.15,
    "lng": 12.56667,
    "population": 305
  },
  {
    "name": "Stora Levene",
    "lat": 58.32468,
    "lng": 12.92533,
    "population": 809
  },
  {
    "name": "Stora Höga",
    "lat": 58.01667,
    "lng": 11.83333,
    "population": 2846
  },
  {
    "name": "Stora Herrestad",
    "lat": 55.46667,
    "lng": 13.86667,
    "population": 331
  },
  {
    "name": "Stora Dyrön",
    "lat": 57.92776,
    "lng": 11.61101,
    "population": 215
  },
  {
    "name": "Storå",
    "lat": 59.71409,
    "lng": 15.13169,
    "population": 1967
  },
  {
    "name": "Stöpen",
    "lat": 58.47802,
    "lng": 13.86611,
    "population": 1373
  },
  {
    "name": "Stöllet",
    "lat": 60.40947,
    "lng": 13.27052,
    "population": 233
  },
  {
    "name": "Stöde",
    "lat": 62.41917,
    "lng": 16.58727,
    "population": 704
  },
  {
    "name": "Stockvik",
    "lat": 62.33667,
    "lng": 17.36583,
    "population": 2532
  },
  {
    "name": "Stockholm County",
    "lat": 59.5,
    "lng": 18,
    "population": 2454821
  },
  {
    "name": "Stockholms Kommun",
    "lat": 59.32478,
    "lng": 18.06427,
    "population": 995574
  },
  {
    "name": "Stockholm",
    "lat": 59.32938,
    "lng": 18.06871,
    "population": 1515017
  },
  {
    "name": "Stockaryd",
    "lat": 57.31737,
    "lng": 14.59341,
    "population": 1019
  },
  {
    "name": "Stockamöllan",
    "lat": 55.94498,
    "lng": 13.36781,
    "population": 293
  },
  {
    "name": "Stocka",
    "lat": 61.89361,
    "lng": 17.33667,
    "population": 340
  },
  {
    "name": "Stoby",
    "lat": 56.17772,
    "lng": 13.82828,
    "population": 729
  },
  {
    "name": "Stjärnhov",
    "lat": 59.08333,
    "lng": 17,
    "population": 555
  },
  {
    "name": "Stilleryd",
    "lat": 56.17146,
    "lng": 14.82127,
    "population": 355
  },
  {
    "name": "Stigtomta",
    "lat": 58.8,
    "lng": 16.78333,
    "population": 1949
  },
  {
    "name": "Stigen",
    "lat": 58.56667,
    "lng": 12.06667,
    "population": 463
  },
  {
    "name": "Stidsvig",
    "lat": 56.2,
    "lng": 13.13333,
    "population": 730
  },
  {
    "name": "Stenungsunds Kommun",
    "lat": 58.06248,
    "lng": 11.90473,
    "population": 27851
  },
  {
    "name": "Stenungsund",
    "lat": 58.07046,
    "lng": 11.8181,
    "population": 13093
  },
  {
    "name": "Stenungsön",
    "lat": 58.06667,
    "lng": 11.8,
    "population": 243
  },
  {
    "name": "Stenstorp",
    "lat": 58.48333,
    "lng": 15.06667,
    "population": 1630
  },
  {
    "name": "Stenstorp",
    "lat": 58.27254,
    "lng": 13.71454,
    "population": 1823
  },
  {
    "name": "Stensele",
    "lat": 65.06622,
    "lng": 17.15593,
    "population": 500
  },
  {
    "name": "Stensbo",
    "lat": 59.07692,
    "lng": 15.34987,
    "population": 12
  },
  {
    "name": "Stenkullen",
    "lat": 57.79476,
    "lng": 12.31688,
    "population": 2000
  },
  {
    "name": "Stenis",
    "lat": 60.95,
    "lng": 14.46667,
    "population": 375
  },
  {
    "name": "Steninge",
    "lat": 59.60199,
    "lng": 17.80459,
    "population": 769
  },
  {
    "name": "Steninge",
    "lat": 56.769,
    "lng": 12.63034,
    "population": 1112
  },
  {
    "name": "Stenhamra",
    "lat": 59.3344,
    "lng": 17.68842,
    "population": 3588
  },
  {
    "name": "Stehag",
    "lat": 55.90188,
    "lng": 13.39577,
    "population": 1191
  },
  {
    "name": "Stavsnäs",
    "lat": 59.28333,
    "lng": 18.68333,
    "population": 1784
  },
  {
    "name": "Stavsjö",
    "lat": 58.72949,
    "lng": 16.43601,
    "population": 210
  },
  {
    "name": "Stavsjö",
    "lat": 56.83333,
    "lng": 13.8,
    "population": 221
  },
  {
    "name": "Stavreviken",
    "lat": 62.55211,
    "lng": 17.40561,
    "population": 222
  },
  {
    "name": "Stava",
    "lat": 58.13333,
    "lng": 14.55,
    "population": 264
  },
  {
    "name": "Stångby",
    "lat": 55.7503,
    "lng": 13.19797,
    "population": 1943
  },
  {
    "name": "Stånga",
    "lat": 57.28084,
    "lng": 18.47596,
    "population": 335
  },
  {
    "name": "Ställdalen",
    "lat": 59.93545,
    "lng": 14.9445,
    "population": 481
  },
  {
    "name": "Stallarholmen",
    "lat": 59.36667,
    "lng": 17.2,
    "population": 1671
  },
  {
    "name": "Staffanstorps Kommun",
    "lat": 55.65,
    "lng": 13.2,
    "population": 27303
  },
  {
    "name": "Staffanstorp",
    "lat": 55.64277,
    "lng": 13.20638,
    "population": 15373
  },
  {
    "name": "Gamla Stan",
    "lat": 59.32627,
    "lng": 18.07251,
    "population": 3000
  },
  {
    "name": "Spjutstorp",
    "lat": 55.58333,
    "lng": 14.01667,
    "population": 202
  },
  {
    "name": "Spjutsbygd",
    "lat": 56.31303,
    "lng": 15.59228,
    "population": 398
  },
  {
    "name": "Spillersboda",
    "lat": 59.7,
    "lng": 18.85,
    "population": 480
  },
  {
    "name": "Spekeröd",
    "lat": 58.03333,
    "lng": 11.86667,
    "population": 211
  },
  {
    "name": "Sparreholm",
    "lat": 59.06667,
    "lng": 16.81667,
    "population": 734
  },
  {
    "name": "Spångsholm",
    "lat": 58.35,
    "lng": 15.23333,
    "population": 374
  },
  {
    "name": "Sövestad",
    "lat": 55.50092,
    "lng": 13.79701,
    "population": 373
  },
  {
    "name": "Sövde",
    "lat": 55.58333,
    "lng": 13.66667,
    "population": 363
  },
  {
    "name": "Sotenäs Kommun",
    "lat": 58.42215,
    "lng": 11.34296,
    "population": 9104
  },
  {
    "name": "Sösdala",
    "lat": 56.03992,
    "lng": 13.67811,
    "population": 1808
  },
  {
    "name": "Sörvik",
    "lat": 64.13333,
    "lng": 15.71667,
    "population": 718
  },
  {
    "name": "Sörvik",
    "lat": 60.18393,
    "lng": 15.15633,
    "population": 699
  },
  {
    "name": "Sörstafors",
    "lat": 59.58333,
    "lng": 16.21667,
    "population": 270
  },
  {
    "name": "Sörskog",
    "lat": 60.81805,
    "lng": 15.37657,
    "population": 30
  },
  {
    "name": "Sorsele kommun",
    "lat": 65.75,
    "lng": 16.75,
    "population": 2357
  },
  {
    "name": "Sorsele",
    "lat": 65.53484,
    "lng": 17.53702,
    "population": 1175
  },
  {
    "name": "Sörforsa",
    "lat": 61.73333,
    "lng": 16.98333,
    "population": 1581
  },
  {
    "name": "Söråker",
    "lat": 62.50561,
    "lng": 17.51032,
    "population": 2374
  },
  {
    "name": "Sonstorp",
    "lat": 58.71667,
    "lng": 15.63333,
    "population": 436
  },
  {
    "name": "Sommen",
    "lat": 58.13333,
    "lng": 14.96667,
    "population": 789
  },
  {
    "name": "Sölvesborgs kommun",
    "lat": 56.0891,
    "lng": 14.64518,
    "population": 17430
  },
  {
    "name": "Sölvesborg",
    "lat": 56.05205,
    "lng": 14.57525,
    "population": 8972
  },
  {
    "name": "Solvarbo",
    "lat": 60.38999,
    "lng": 15.66899,
    "population": 301
  },
  {
    "name": "Solsidan",
    "lat": 59.4,
    "lng": 17.55,
    "population": 209
  },
  {
    "name": "Solna Kommun",
    "lat": 59.36548,
    "lng": 18.00728,
    "population": 85789
  },
  {
    "name": "Solna",
    "lat": 59.36004,
    "lng": 18.00086,
    "population": 66909
  },
  {
    "name": "Sollerön",
    "lat": 60.91667,
    "lng": 14.61667,
    "population": 860
  },
  {
    "name": "Sollentuna Kommun",
    "lat": 59.44499,
    "lng": 17.93518,
    "population": 77624
  },
  {
    "name": "Sollentuna",
    "lat": 59.42804,
    "lng": 17.95093,
    "population": 139606
  },
  {
    "name": "Sollefteå Kommun",
    "lat": 63.38333,
    "lng": 16.91667,
    "population": 18396
  },
  {
    "name": "Sollefteå",
    "lat": 63.16667,
    "lng": 17.26667,
    "population": 7399
  },
  {
    "name": "Sollebrunn",
    "lat": 58.11667,
    "lng": 12.53333,
    "population": 1482
  },
  {
    "name": "Solberga",
    "lat": 60.98333,
    "lng": 15.21667,
    "population": 419
  },
  {
    "name": "Solberga",
    "lat": 57.94107,
    "lng": 11.80077,
    "population": 224
  },
  {
    "name": "Solberga",
    "lat": 57.73333,
    "lng": 14.75,
    "population": 370
  },
  {
    "name": "Södra Vi",
    "lat": 57.73993,
    "lng": 15.79391,
    "population": 1134
  },
  {
    "name": "Södra Sandby",
    "lat": 56.56667,
    "lng": 16.61667,
    "population": 5941
  },
  {
    "name": "Södra Sandby",
    "lat": 55.71677,
    "lng": 13.34659,
    "population": 6306
  },
  {
    "name": "Södertälje Kommun",
    "lat": 59.18121,
    "lng": 17.62756,
    "population": 102911
  },
  {
    "name": "Södertälje",
    "lat": 59.19554,
    "lng": 17.62525,
    "population": 70777
  },
  {
    "name": "Södersvik",
    "lat": 59.75,
    "lng": 18.91667,
    "population": 352
  },
  {
    "name": "Söderskogen",
    "lat": 60.21667,
    "lng": 17.83333,
    "population": 363
  },
  {
    "name": "Södermanland County",
    "lat": 59.25,
    "lng": 16.66667,
    "population": 301944
  },
  {
    "name": "Södermalm",
    "lat": 59.31278,
    "lng": 18.07577,
    "population": 127323
  },
  {
    "name": "Söderköpings Kommun",
    "lat": 58.42056,
    "lng": 16.4451,
    "population": 14789
  },
  {
    "name": "Söderköping",
    "lat": 58.48057,
    "lng": 16.32221,
    "population": 7418
  },
  {
    "name": "Söderhamns Kommun",
    "lat": 61.25371,
    "lng": 16.94879,
    "population": 24545
  },
  {
    "name": "Söderhamn",
    "lat": 61.30373,
    "lng": 17.05921,
    "population": 12259
  },
  {
    "name": "Söderfors",
    "lat": 64.81667,
    "lng": 18.05,
    "population": 1597
  },
  {
    "name": "Söderfors",
    "lat": 60.38333,
    "lng": 17.23333,
    "population": 1704
  },
  {
    "name": "Söderbärke",
    "lat": 60.07011,
    "lng": 15.56025,
    "population": 973
  },
  {
    "name": "Söderala",
    "lat": 61.28333,
    "lng": 16.96667,
    "population": 961
  },
  {
    "name": "Söderåkra",
    "lat": 56.45,
    "lng": 16.06667,
    "population": 943
  },
  {
    "name": "Snogeröd",
    "lat": 55.83619,
    "lng": 13.49292,
    "population": 208
  },
  {
    "name": "Smygehamn",
    "lat": 55.34337,
    "lng": 13.36989,
    "population": 1297
  },
  {
    "name": "Smögen",
    "lat": 58.35593,
    "lng": 11.22411,
    "population": 1292
  },
  {
    "name": "Smedstorp",
    "lat": 59.41667,
    "lng": 14.3,
    "population": 372
  },
  {
    "name": "Smedstorp",
    "lat": 55.55049,
    "lng": 14.11567,
    "population": 361
  },
  {
    "name": "Smedjebackens Kommun",
    "lat": 60.09475,
    "lng": 15.45204,
    "population": 10823
  },
  {
    "name": "Smedjebacken",
    "lat": 60.14181,
    "lng": 15.41416,
    "population": 5258
  },
  {
    "name": "Smedby",
    "lat": 60.7,
    "lng": 15.05,
    "population": 3530
  },
  {
    "name": "Smedby",
    "lat": 56.67413,
    "lng": 16.2432,
    "population": 3607
  },
  {
    "name": "Smålandsstenar",
    "lat": 57.16241,
    "lng": 13.41212,
    "population": 4564
  },
  {
    "name": "Anneberg",
    "lat": 57.72349,
    "lng": 14.80627,
    "population": 834
  },
  {
    "name": "Slottsbron",
    "lat": 59.3227,
    "lng": 13.10268,
    "population": 1010
  },
  {
    "name": "Slöinge",
    "lat": 56.85,
    "lng": 12.68333,
    "population": 991
  },
  {
    "name": "Slite",
    "lat": 57.70461,
    "lng": 18.8031,
    "population": 946
  },
  {
    "name": "Slätthult",
    "lat": 57.77168,
    "lng": 12.34384,
    "population": 231
  },
  {
    "name": "Slaka",
    "lat": 58.36667,
    "lng": 15.55,
    "population": 593
  },
  {
    "name": "Skyttorp",
    "lat": 60.08333,
    "lng": 17.73333,
    "population": 636
  },
  {
    "name": "Skutskär",
    "lat": 60.62507,
    "lng": 17.41552,
    "population": 6279
  },
  {
    "name": "Skurups Kommun",
    "lat": 55.47322,
    "lng": 13.5455,
    "population": 17099
  },
  {
    "name": "Skurup",
    "lat": 55.47839,
    "lng": 13.50186,
    "population": 8040
  },
  {
    "name": "Skumparp",
    "lat": 55.53333,
    "lng": 12.96667,
    "population": 225
  },
  {
    "name": "Skummeslövsstrand",
    "lat": 56.46667,
    "lng": 12.91667,
    "population": 454
  },
  {
    "name": "Skultuna",
    "lat": 59.71667,
    "lng": 16.41667,
    "population": 3378
  },
  {
    "name": "Skultorp",
    "lat": 58.35,
    "lng": 13.83333,
    "population": 3644
  },
  {
    "name": "Skruv",
    "lat": 57.15,
    "lng": 15.16667,
    "population": 516
  },
  {
    "name": "Skruv",
    "lat": 56.67646,
    "lng": 15.3659,
    "population": 586
  },
  {
    "name": "Skrea",
    "lat": 56.88333,
    "lng": 12.56667,
    "population": 1846
  },
  {
    "name": "Skövde Kommun",
    "lat": 58.43488,
    "lng": 13.90358,
    "population": 57995
  },
  {
    "name": "Skövde",
    "lat": 58.39118,
    "lng": 13.84506,
    "population": 36842
  },
  {
    "name": "Skottsund",
    "lat": 62.29056,
    "lng": 17.38694,
    "population": 1052
  },
  {
    "name": "Skottorp",
    "lat": 59.93333,
    "lng": 15.38333,
    "population": 451
  },
  {
    "name": "Skottorp",
    "lat": 56.44929,
    "lng": 12.96067,
    "population": 512
  },
  {
    "name": "Skölsta",
    "lat": 59.8761,
    "lng": 17.74751,
    "population": 368
  },
  {
    "name": "Skolsta",
    "lat": 59.65942,
    "lng": 17.24373,
    "population": 200
  },
  {
    "name": "Sköllersta",
    "lat": 59.13738,
    "lng": 15.3394,
    "population": 1079
  },
  {
    "name": "Sköldinge",
    "lat": 59.03106,
    "lng": 16.44713,
    "population": 685
  },
  {
    "name": "Skogstorp",
    "lat": 59.32472,
    "lng": 16.48284,
    "population": 2180
  },
  {
    "name": "Skogsby",
    "lat": 56.63643,
    "lng": 16.52321,
    "population": 948
  },
  {
    "name": "Skoghall",
    "lat": 59.32324,
    "lng": 13.46552,
    "population": 13605
  },
  {
    "name": "Skog",
    "lat": 64.7,
    "lng": 16.13333,
    "population": 312
  },
  {
    "name": "Skoby",
    "lat": 60.02916,
    "lng": 18.0212,
    "population": 239
  },
  {
    "name": "Skivarp",
    "lat": 55.41667,
    "lng": 13.56667,
    "population": 1258
  },
  {
    "name": "Skinnskattebergs Kommun",
    "lat": 59.79715,
    "lng": 15.71463,
    "population": 4256
  },
  {
    "name": "Skinnskatteberg",
    "lat": 59.83028,
    "lng": 15.69337,
    "population": 2383
  },
  {
    "name": "Skillinge",
    "lat": 59.42423,
    "lng": 16.11746,
    "population": 841
  },
  {
    "name": "Skillinge",
    "lat": 55.47428,
    "lng": 14.28283,
    "population": 975
  },
  {
    "name": "Skillingaryd",
    "lat": 57.43044,
    "lng": 14.09383,
    "population": 3965
  },
  {
    "name": "Skeppshult",
    "lat": 58.68333,
    "lng": 14.5,
    "population": 389
  },
  {
    "name": "Skeppshult",
    "lat": 57.12506,
    "lng": 13.375,
    "population": 360
  },
  {
    "name": "Skepplanda",
    "lat": 57.98333,
    "lng": 12.2,
    "population": 1821
  },
  {
    "name": "Skegrie",
    "lat": 55.40633,
    "lng": 13.07693,
    "population": 1156
  },
  {
    "name": "Skee",
    "lat": 58.9257,
    "lng": 11.26931,
    "population": 736
  },
  {
    "name": "Skede",
    "lat": 63.25,
    "lng": 19,
    "population": 345
  },
  {
    "name": "Skede",
    "lat": 57.46667,
    "lng": 15.16667,
    "population": 289
  },
  {
    "name": "Skedala",
    "lat": 56.6946,
    "lng": 12.97569,
    "population": 359
  },
  {
    "name": "Skebokvarn",
    "lat": 59.06372,
    "lng": 16.71393,
    "population": 207
  },
  {
    "name": "Skebobruk",
    "lat": 59.96667,
    "lng": 18.6,
    "population": 276
  },
  {
    "name": "Skattungbyn",
    "lat": 61.18478,
    "lng": 14.8511,
    "population": 310
  },
  {
    "name": "Skattkärr",
    "lat": 59.41208,
    "lng": 13.67078,
    "population": 1979
  },
  {
    "name": "Skatan",
    "lat": 62.19694,
    "lng": 17.49833,
    "population": 222
  },
  {
    "name": "Skärstad",
    "lat": 57.88333,
    "lng": 14.36667,
    "population": 433
  },
  {
    "name": "Skärplinge",
    "lat": 60.46667,
    "lng": 17.76667,
    "population": 720
  },
  {
    "name": "Skärhamn",
    "lat": 57.98665,
    "lng": 11.55742,
    "population": 3495
  },
  {
    "name": "Skåre",
    "lat": 55.38333,
    "lng": 13.05,
    "population": 5173
  },
  {
    "name": "Skåre",
    "lat": 59.43333,
    "lng": 13.43333,
    "population": 5444
  },
  {
    "name": "Skärblacka",
    "lat": 58.56667,
    "lng": 15.9,
    "population": 4023
  },
  {
    "name": "Skara Kommun",
    "lat": 58.37759,
    "lng": 13.47548,
    "population": 18707
  },
  {
    "name": "Skara",
    "lat": 58.38659,
    "lng": 13.43836,
    "population": 11437
  },
  {
    "name": "Skåpafors",
    "lat": 59.02389,
    "lng": 12.28863,
    "population": 323
  },
  {
    "name": "Skänninge",
    "lat": 59.93333,
    "lng": 18.48333,
    "population": 3242
  },
  {
    "name": "Skänninge",
    "lat": 58.39427,
    "lng": 15.08659,
    "population": 3358
  },
  {
    "name": "Skåne-Tranås",
    "lat": 55.61487,
    "lng": 13.99723,
    "population": 226
  },
  {
    "name": "Själsö",
    "lat": 57.69445,
    "lng": 18.37087,
    "population": 397
  },
  {
    "name": "Skålö",
    "lat": 60.56667,
    "lng": 14.3,
    "population": 340
  },
  {
    "name": "Skällinge",
    "lat": 57.18333,
    "lng": 12.46667,
    "population": 636
  },
  {
    "name": "Skagersvik",
    "lat": 58.96667,
    "lng": 14.1,
    "population": 243
  },
  {
    "name": "Sjuntorp",
    "lat": 58.2,
    "lng": 12.21667,
    "population": 2213
  },
  {
    "name": "Sjunnerup",
    "lat": 55.96667,
    "lng": 13.56667,
    "population": 234
  },
  {
    "name": "Sjunnen",
    "lat": 57.43726,
    "lng": 15.17399,
    "population": 420
  },
  {
    "name": "Sjuhalla",
    "lat": 56.19106,
    "lng": 15.56123,
    "population": 221
  },
  {
    "name": "Sjövik",
    "lat": 60.15,
    "lng": 16.31667,
    "population": 892
  },
  {
    "name": "Sjövik",
    "lat": 57.91667,
    "lng": 12.36667,
    "population": 929
  },
  {
    "name": "Sjötorp",
    "lat": 59.48333,
    "lng": 14.25,
    "population": 551
  },
  {
    "name": "Sjötorp",
    "lat": 58.83333,
    "lng": 13.98333,
    "population": 437
  },
  {
    "name": "Sjötofta",
    "lat": 57.35,
    "lng": 13.28333,
    "population": 208
  },
  {
    "name": "Sjösa",
    "lat": 58.77757,
    "lng": 17.08919,
    "population": 488
  },
  {
    "name": "Sjörröd",
    "lat": 56.28333,
    "lng": 13.91667,
    "population": 672
  },
  {
    "name": "Sjömarken",
    "lat": 57.71533,
    "lng": 12.83495,
    "population": 2596
  },
  {
    "name": "Sjögestad",
    "lat": 58.36385,
    "lng": 15.36897,
    "population": 307
  },
  {
    "name": "Sjöbo Kommun",
    "lat": 55.65146,
    "lng": 13.75557,
    "population": 19337
  },
  {
    "name": "Sjöbo",
    "lat": 55.63135,
    "lng": 13.70622,
    "population": 7910
  },
  {
    "name": "Sjöberg",
    "lat": 64.83333,
    "lng": 16.25,
    "population": 10
  },
  {
    "name": "Simrishamns kommun",
    "lat": 55.58621,
    "lng": 14.23778,
    "population": 18890
  },
  {
    "name": "Simrishamn",
    "lat": 55.55653,
    "lng": 14.35037,
    "population": 6779
  },
  {
    "name": "Simris",
    "lat": 55.53333,
    "lng": 14.33333,
    "population": 235
  },
  {
    "name": "Simonstorp",
    "lat": 58.78255,
    "lng": 16.15694,
    "population": 242
  },
  {
    "name": "Simlångsdalen",
    "lat": 56.72199,
    "lng": 13.13211,
    "population": 648
  },
  {
    "name": "Silverdalen",
    "lat": 57.54095,
    "lng": 15.75104,
    "population": 681
  },
  {
    "name": "Siljansnäs",
    "lat": 60.78333,
    "lng": 14.85,
    "population": 1274
  },
  {
    "name": "Sigtuna Kommun",
    "lat": 59.6396,
    "lng": 17.93946,
    "population": 52767
  },
  {
    "name": "Sigtuna",
    "lat": 59.61731,
    "lng": 17.72361,
    "population": 9074
  },
  {
    "name": "Signehög",
    "lat": 58,
    "lng": 12.11667,
    "population": 239
  },
  {
    "name": "Sifferbo",
    "lat": 60.555,
    "lng": 15.23057,
    "population": 406
  },
  {
    "name": "Sidensjö",
    "lat": 63.2999,
    "lng": 18.28031,
    "population": 380
  },
  {
    "name": "Sibo",
    "lat": 61.21667,
    "lng": 16.6,
    "population": 281
  },
  {
    "name": "Sibble",
    "lat": 59.11667,
    "lng": 17.75,
    "population": 354
  },
  {
    "name": "Sibbhult",
    "lat": 56.26667,
    "lng": 14.2,
    "population": 1431
  },
  {
    "name": "Sexdrega",
    "lat": 57.58333,
    "lng": 13.11667,
    "population": 802
  },
  {
    "name": "Sennan",
    "lat": 56.77334,
    "lng": 12.9805,
    "population": 398
  },
  {
    "name": "Selja",
    "lat": 61.01667,
    "lng": 14.46667,
    "population": 547
  },
  {
    "name": "Selånger",
    "lat": 62.40628,
    "lng": 17.18448,
    "population": 324
  },
  {
    "name": "Segmon",
    "lat": 59.27364,
    "lng": 13.04051,
    "population": 416
  },
  {
    "name": "Segersta",
    "lat": 61.26809,
    "lng": 16.65352,
    "population": 352
  },
  {
    "name": "Segersäng",
    "lat": 59.02791,
    "lng": 17.93379,
    "population": 757
  },
  {
    "name": "Segeltorp",
    "lat": 59.27597,
    "lng": 17.93072,
    "population": 10536
  },
  {
    "name": "Saxnäs",
    "lat": 64.97144,
    "lng": 15.33968,
    "population": 127
  },
  {
    "name": "Saxemara",
    "lat": 56.16667,
    "lng": 15.23333,
    "population": 429
  },
  {
    "name": "Saxdalen",
    "lat": 60.14696,
    "lng": 14.98553,
    "population": 620
  },
  {
    "name": "Sävsjö Kommun",
    "lat": 57.32883,
    "lng": 14.59426,
    "population": 11563
  },
  {
    "name": "Sävsjö",
    "lat": 57.40327,
    "lng": 14.66244,
    "population": 5374
  },
  {
    "name": "Sävja",
    "lat": 59.81872,
    "lng": 17.69958,
    "population": 9723
  },
  {
    "name": "Säve",
    "lat": 57.8,
    "lng": 11.91667,
    "population": 774
  },
  {
    "name": "Sättra",
    "lat": 59.61667,
    "lng": 18.43333,
    "population": 336
  },
  {
    "name": "Sätofta",
    "lat": 55.91667,
    "lng": 13.55,
    "population": 1160
  },
  {
    "name": "Sätila",
    "lat": 57.54172,
    "lng": 12.43429,
    "population": 1210
  },
  {
    "name": "Säters Kommun",
    "lat": 60.36887,
    "lng": 15.71383,
    "population": 11223
  },
  {
    "name": "Säter",
    "lat": 60.34778,
    "lng": 15.75051,
    "population": 4613
  },
  {
    "name": "Särö",
    "lat": 57.50577,
    "lng": 11.9321,
    "population": 2982
  },
  {
    "name": "Särna",
    "lat": 61.69284,
    "lng": 13.14257,
    "population": 675
  },
  {
    "name": "Sannahed",
    "lat": 59.1,
    "lng": 15.15,
    "population": 419
  },
  {
    "name": "Sankt Olof",
    "lat": 55.63333,
    "lng": 14.13333,
    "population": 666
  },
  {
    "name": "Sandvikens Kommun",
    "lat": 60.55029,
    "lng": 16.68461,
    "population": 38360
  },
  {
    "name": "Sandviken",
    "lat": 60.61667,
    "lng": 16.76667,
    "population": 24724
  },
  {
    "name": "Sandviken",
    "lat": 59.26667,
    "lng": 17.5,
    "population": 418
  },
  {
    "name": "Sandslån",
    "lat": 63.00919,
    "lng": 17.79674,
    "population": 313
  },
  {
    "name": "Sandhult",
    "lat": 57.76667,
    "lng": 12.81667,
    "population": 563
  },
  {
    "name": "Sandhem",
    "lat": 58.01667,
    "lng": 13.48333,
    "population": 706
  },
  {
    "name": "Sandhem",
    "lat": 57.98333,
    "lng": 13.76667,
    "population": 673
  },
  {
    "name": "Sandarne",
    "lat": 61.25893,
    "lng": 17.15284,
    "population": 1681
  },
  {
    "name": "Sandared",
    "lat": 57.70992,
    "lng": 12.79238,
    "population": 2993
  },
  {
    "name": "Saltsjöbaden",
    "lat": 59.28333,
    "lng": 18.3,
    "population": 9477
  },
  {
    "name": "Sälleryd",
    "lat": 56.29284,
    "lng": 15.84579,
    "population": 62
  },
  {
    "name": "Sälgsjön",
    "lat": 60.61768,
    "lng": 17.11318,
    "population": 214
  },
  {
    "name": "Sälen",
    "lat": 61.15,
    "lng": 13.26667,
    "population": 769
  },
  {
    "name": "Salems Kommun",
    "lat": 59.24572,
    "lng": 17.69875,
    "population": 17507
  },
  {
    "name": "Saleby",
    "lat": 58.37923,
    "lng": 13.14702,
    "population": 212
  },
  {
    "name": "Salbohed",
    "lat": 59.91376,
    "lng": 16.34862,
    "population": 255
  },
  {
    "name": "Sålanda",
    "lat": 57.98333,
    "lng": 12.21667,
    "population": 4240
  },
  {
    "name": "Sala kommun",
    "lat": 59.97221,
    "lng": 16.47374,
    "population": 22843
  },
  {
    "name": "Sala",
    "lat": 59.91993,
    "lng": 16.60655,
    "population": 13087
  },
  {
    "name": "Sågmyra",
    "lat": 60.71667,
    "lng": 15.28333,
    "population": 552
  },
  {
    "name": "Säffle Kommun",
    "lat": 59.19559,
    "lng": 12.86437,
    "population": 14899
  },
  {
    "name": "Säffle",
    "lat": 59.13229,
    "lng": 12.92888,
    "population": 9150
  },
  {
    "name": "Ryssby",
    "lat": 57.71667,
    "lng": 14.65,
    "population": 689
  },
  {
    "name": "Ryssby",
    "lat": 56.86667,
    "lng": 14.16667,
    "population": 691
  },
  {
    "name": "Rygga",
    "lat": 57.4703,
    "lng": 12.2265,
    "population": 61
  },
  {
    "name": "Rydsnäs",
    "lat": 57.79841,
    "lng": 15.15057,
    "population": 282
  },
  {
    "name": "Rydsgård",
    "lat": 55.47285,
    "lng": 13.58829,
    "population": 1383
  },
  {
    "name": "Rydöbruk",
    "lat": 56.96007,
    "lng": 13.1335,
    "population": 367
  },
  {
    "name": "Rydebäck",
    "lat": 55.96667,
    "lng": 12.76667,
    "population": 5904
  },
  {
    "name": "Rydboholm",
    "lat": 57.65,
    "lng": 12.88333,
    "population": 993
  },
  {
    "name": "Rydbo",
    "lat": 59.46191,
    "lng": 18.18538,
    "population": 597
  },
  {
    "name": "Rydal",
    "lat": 57.55567,
    "lng": 12.69244,
    "population": 415
  },
  {
    "name": "Rydaholm",
    "lat": 56.98388,
    "lng": 14.30849,
    "population": 1587
  },
  {
    "name": "Ryd",
    "lat": 58.66667,
    "lng": 15.08333,
    "population": 1446
  },
  {
    "name": "Ryd",
    "lat": 57.72603,
    "lng": 13.86921,
    "population": 200
  },
  {
    "name": "Ryd",
    "lat": 56.46667,
    "lng": 14.68333,
    "population": 1474
  },
  {
    "name": "Rya",
    "lat": 59.55,
    "lng": 15.23333,
    "population": 295
  },
  {
    "name": "Rya",
    "lat": 57.70127,
    "lng": 12.3725,
    "population": 365
  },
  {
    "name": "Rusksele",
    "lat": 64.81667,
    "lng": 18.88333,
    "population": 201
  },
  {
    "name": "Rupstjärn",
    "lat": 60.67915,
    "lng": 15.8452,
    "population": 100
  },
  {
    "name": "Runhällen",
    "lat": 60.03333,
    "lng": 16.81667,
    "population": 213
  },
  {
    "name": "Runemo",
    "lat": 61.35639,
    "lng": 16.1367,
    "population": 249
  },
  {
    "name": "Rundvik",
    "lat": 63.53333,
    "lng": 19.43333,
    "population": 810
  },
  {
    "name": "Ruda",
    "lat": 58.63333,
    "lng": 15.76667,
    "population": 608
  },
  {
    "name": "Ruda",
    "lat": 57.10911,
    "lng": 16.11424,
    "population": 652
  },
  {
    "name": "Rud",
    "lat": 59.31667,
    "lng": 13.58333,
    "population": 217
  },
  {
    "name": "Rottneros",
    "lat": 59.79124,
    "lng": 13.1051,
    "population": 445
  },
  {
    "name": "Rottne",
    "lat": 57.01667,
    "lng": 14.9,
    "population": 2395
  },
  {
    "name": "Roteberg",
    "lat": 61.39708,
    "lng": 15.82933,
    "population": 379
  },
  {
    "name": "Rot",
    "lat": 61.25,
    "lng": 14.03333,
    "population": 662
  },
  {
    "name": "Röstånga",
    "lat": 56,
    "lng": 13.28333,
    "population": 874
  },
  {
    "name": "Rossön",
    "lat": 63.92496,
    "lng": 16.32992,
    "population": 344
  },
  {
    "name": "Rosersberg",
    "lat": 59.58333,
    "lng": 17.88333,
    "population": 1765
  },
  {
    "name": "Rosenlund",
    "lat": 58.96667,
    "lng": 16.83333,
    "population": 340
  },
  {
    "name": "Rosenfors",
    "lat": 57.36667,
    "lng": 15.83333,
    "population": 267
  },
  {
    "name": "Rörvik",
    "lat": 59.9,
    "lng": 18.9,
    "population": 555
  },
  {
    "name": "Rörvik",
    "lat": 57.2381,
    "lng": 14.57719,
    "population": 582
  },
  {
    "name": "Rörö",
    "lat": 57.7761,
    "lng": 11.62124,
    "population": 262
  },
  {
    "name": "Rörbäcksnäs",
    "lat": 61.13429,
    "lng": 12.80937,
    "population": 200
  },
  {
    "name": "Rönneshytta",
    "lat": 58.93333,
    "lng": 15.03333,
    "population": 279
  },
  {
    "name": "Ronneby Kommun",
    "lat": 56.31031,
    "lng": 15.24038,
    "population": 28741
  },
  {
    "name": "Ronnebyhamn",
    "lat": 56.18333,
    "lng": 15.3,
    "population": 749
  },
  {
    "name": "Ronneby",
    "lat": 56.20999,
    "lng": 15.27602,
    "population": 12612
  },
  {
    "name": "Rönnäng",
    "lat": 57.93333,
    "lng": 11.58333,
    "population": 1551
  },
  {
    "name": "Romme",
    "lat": 60.43333,
    "lng": 15.5,
    "population": 1735
  },
  {
    "name": "Roma",
    "lat": 57.50357,
    "lng": 18.45899,
    "population": 905
  },
  {
    "name": "Rolfstorp",
    "lat": 57.15,
    "lng": 12.45,
    "population": 537
  },
  {
    "name": "Röke",
    "lat": 56.23916,
    "lng": 13.51904,
    "population": 204
  },
  {
    "name": "Röfors",
    "lat": 58.95,
    "lng": 14.61667,
    "population": 266
  },
  {
    "name": "Rödeby",
    "lat": 56.26078,
    "lng": 15.62143,
    "population": 3508
  },
  {
    "name": "Rockneby",
    "lat": 56.80223,
    "lng": 16.35014,
    "population": 898
  },
  {
    "name": "Rockhammar",
    "lat": 59.52729,
    "lng": 15.45138,
    "population": 265
  },
  {
    "name": "Robertsholm",
    "lat": 60.56667,
    "lng": 16.28333,
    "population": 415
  },
  {
    "name": "Rinkeby",
    "lat": 59.38708,
    "lng": 17.92754,
    "population": 19349
  },
  {
    "name": "Rinkabyholm",
    "lat": 56.64972,
    "lng": 16.26667,
    "population": 1631
  },
  {
    "name": "Rinkaby",
    "lat": 59.46667,
    "lng": 15.58333,
    "population": 700
  },
  {
    "name": "Rinkaby",
    "lat": 55.98333,
    "lng": 14.26667,
    "population": 768
  },
  {
    "name": "Ringarum",
    "lat": 58.33333,
    "lng": 16.45,
    "population": 605
  },
  {
    "name": "Rindö",
    "lat": 59.39688,
    "lng": 18.39434,
    "population": 1100
  },
  {
    "name": "Rimforsa",
    "lat": 58.13624,
    "lng": 15.6865,
    "population": 2259
  },
  {
    "name": "Rimbo",
    "lat": 59.75,
    "lng": 18.36667,
    "population": 4882
  },
  {
    "name": "Riksgränsen",
    "lat": 68.42643,
    "lng": 18.1265,
    "population": 44
  },
  {
    "name": "Riddarhyttan",
    "lat": 59.80844,
    "lng": 15.54414,
    "population": 321
  },
  {
    "name": "Resarö",
    "lat": 59.4291,
    "lng": 18.33386,
    "population": 3249
  },
  {
    "name": "Repbäcken",
    "lat": 60.51667,
    "lng": 15.33333,
    "population": 233
  },
  {
    "name": "Rengsjö",
    "lat": 61.36294,
    "lng": 16.61172,
    "population": 245
  },
  {
    "name": "Rejmyre",
    "lat": 58.83333,
    "lng": 15.91667,
    "population": 886
  },
  {
    "name": "Reftele",
    "lat": 57.17467,
    "lng": 13.59498,
    "population": 1289
  },
  {
    "name": "Rävlanda",
    "lat": 57.65338,
    "lng": 12.49791,
    "population": 1522
  },
  {
    "name": "Rävemåla",
    "lat": 56.93333,
    "lng": 16.36667,
    "population": 323
  },
  {
    "name": "Rävemåla",
    "lat": 56.55701,
    "lng": 15.26426,
    "population": 305
  },
  {
    "name": "Rättviks Kommun",
    "lat": 60.88632,
    "lng": 15.11787,
    "population": 10998
  },
  {
    "name": "Rättvik",
    "lat": 60.88632,
    "lng": 15.11787,
    "population": 5160
  },
  {
    "name": "Råtorp",
    "lat": 59.40197,
    "lng": 13.49144,
    "population": 3287
  },
  {
    "name": "Rätan",
    "lat": 62.46667,
    "lng": 14.55,
    "population": 213
  },
  {
    "name": "Råsunda",
    "lat": 59.36588,
    "lng": 17.99569,
    "population": 16877
  },
  {
    "name": "Rappestad",
    "lat": 58.4,
    "lng": 15.41667,
    "population": 247
  },
  {
    "name": "Ransta",
    "lat": 59.81037,
    "lng": 16.63738,
    "population": 850
  },
  {
    "name": "Ränneslöv",
    "lat": 56.45,
    "lng": 13.06667,
    "population": 458
  },
  {
    "name": "Rånnaväg",
    "lat": 57.67693,
    "lng": 13.46794,
    "population": 330
  },
  {
    "name": "Rångedala",
    "lat": 57.79382,
    "lng": 13.12876,
    "population": 420
  },
  {
    "name": "Rånäs",
    "lat": 59.8034,
    "lng": 18.30265,
    "population": 428
  },
  {
    "name": "Ramvik",
    "lat": 62.81667,
    "lng": 17.85,
    "population": 746
  },
  {
    "name": "Ramsele",
    "lat": 64.06667,
    "lng": 19.55,
    "population": 964
  },
  {
    "name": "Ramsele",
    "lat": 63.53947,
    "lng": 16.46791,
    "population": 858
  },
  {
    "name": "Ramsberg",
    "lat": 59.77291,
    "lng": 15.29318,
    "population": 203
  },
  {
    "name": "Ramnäs",
    "lat": 59.76667,
    "lng": 16.2,
    "population": 1333
  },
  {
    "name": "Ramdala",
    "lat": 56.18333,
    "lng": 15.76667,
    "population": 277
  },
  {
    "name": "Rältlindor",
    "lat": 60.65078,
    "lng": 14.97908,
    "population": 25
  },
  {
    "name": "Rälla",
    "lat": 56.7711,
    "lng": 16.57063,
    "population": 418
  },
  {
    "name": "Raksta",
    "lat": 59.22133,
    "lng": 18.2985,
    "population": 629
  },
  {
    "name": "Ragunda Kommun",
    "lat": 63.19208,
    "lng": 16.14989,
    "population": 5146
  },
  {
    "name": "Råda",
    "lat": 60.15,
    "lng": 13.41667,
    "population": 475
  },
  {
    "name": "Råda",
    "lat": 60,
    "lng": 13.6,
    "population": 449
  },
  {
    "name": "Råby",
    "lat": 60.1,
    "lng": 16.36667,
    "population": 879
  },
  {
    "name": "Råby",
    "lat": 59.53333,
    "lng": 17.5,
    "population": 924
  },
  {
    "name": "Rabbalshede",
    "lat": 58.61043,
    "lng": 11.47402,
    "population": 283
  },
  {
    "name": "Pukavik",
    "lat": 56.16667,
    "lng": 14.68333,
    "population": 343
  },
  {
    "name": "Porjus",
    "lat": 66.95927,
    "lng": 19.82071,
    "population": 240
  },
  {
    "name": "Piperskärr",
    "lat": 57.78333,
    "lng": 16.63306,
    "population": 579
  },
  {
    "name": "Pilgrimstad",
    "lat": 62.95538,
    "lng": 15.04393,
    "population": 402
  },
  {
    "name": "Perstorps Kommun",
    "lat": 56.18857,
    "lng": 13.37681,
    "population": 7235
  },
  {
    "name": "Perstorp",
    "lat": 56.13829,
    "lng": 13.39476,
    "population": 5847
  },
  {
    "name": "Persbo",
    "lat": 60.2,
    "lng": 17.43333,
    "population": 343
  },
  {
    "name": "Pershagen",
    "lat": 59.15494,
    "lng": 17.6534,
    "population": 2235
  },
  {
    "name": "Persberg",
    "lat": 59.75,
    "lng": 14.25,
    "population": 249
  },
  {
    "name": "Pauliström",
    "lat": 57.46911,
    "lng": 15.50702,
    "population": 220
  },
  {
    "name": "Påskallavik",
    "lat": 57.16667,
    "lng": 16.45,
    "population": 1099
  },
  {
    "name": "Påryd",
    "lat": 56.56667,
    "lng": 15.91667,
    "population": 663
  },
  {
    "name": "Partille Kommun",
    "lat": 57.73306,
    "lng": 12.13072,
    "population": 37931
  },
  {
    "name": "Partille",
    "lat": 57.7395,
    "lng": 12.10642,
    "population": 28648
  },
  {
    "name": "Parksidan",
    "lat": 59.28071,
    "lng": 17.84783,
    "population": 944
  },
  {
    "name": "Pålsboda",
    "lat": 59.06565,
    "lng": 15.33747,
    "population": 1610
  },
  {
    "name": "Påläng",
    "lat": 62.38333,
    "lng": 17.15,
    "population": 291
  },
  {
    "name": "Påarp",
    "lat": 56.03333,
    "lng": 12.81667,
    "population": 2932
  },
  {
    "name": "Oxie",
    "lat": 55.54014,
    "lng": 13.09605,
    "population": 12665
  },
  {
    "name": "Öxeryd",
    "lat": 57.73621,
    "lng": 12.27881,
    "population": 544
  },
  {
    "name": "Oxelösunds Kommun",
    "lat": 58.67519,
    "lng": 17.08406,
    "population": 12031
  },
  {
    "name": "Oxelösund",
    "lat": 58.67057,
    "lng": 17.10152,
    "population": 11157
  },
  {
    "name": "Öxabäck",
    "lat": 57.4,
    "lng": 12.8,
    "population": 330
  },
  {
    "name": "Ovesholm",
    "lat": 56,
    "lng": 14.01667,
    "population": 283
  },
  {
    "name": "Överum",
    "lat": 57.98856,
    "lng": 16.3139,
    "population": 1166
  },
  {
    "name": "Övertänger",
    "lat": 60.86667,
    "lng": 15.75,
    "population": 240
  },
  {
    "name": "Överlida",
    "lat": 57.34957,
    "lng": 12.89703,
    "population": 540
  },
  {
    "name": "Överhörnäs",
    "lat": 63.28763,
    "lng": 18.58119,
    "population": 602
  },
  {
    "name": "Överhärde",
    "lat": 60.61667,
    "lng": 16.96667,
    "population": 553
  },
  {
    "name": "Överby",
    "lat": 59.36076,
    "lng": 18.64792,
    "population": 253
  },
  {
    "name": "Överboda",
    "lat": 63.85174,
    "lng": 19.92887,
    "population": 241
  },
  {
    "name": "Överberg",
    "lat": 62.06667,
    "lng": 14.28333,
    "population": 57
  },
  {
    "name": "Ovansjö",
    "lat": 62.23627,
    "lng": 17.3923,
    "population": 96
  },
  {
    "name": "Ovanåkers Kommun",
    "lat": 61.33328,
    "lng": 15.78067,
    "population": 11341
  },
  {
    "name": "Ovanåker",
    "lat": 61.3625,
    "lng": 15.89271,
    "population": 227
  },
  {
    "name": "Otterbäcken",
    "lat": 58.95,
    "lng": 14.03333,
    "population": 686
  },
  {
    "name": "Östra Vemmerlöv",
    "lat": 55.58608,
    "lng": 14.22994,
    "population": 234
  },
  {
    "name": "Östra Tommarp",
    "lat": 55.53333,
    "lng": 14.23333,
    "population": 291
  },
  {
    "name": "Östra Sönnarslöv",
    "lat": 55.88333,
    "lng": 14.01667,
    "population": 265
  },
  {
    "name": "Östra Ryd",
    "lat": 58.4,
    "lng": 16.15,
    "population": 477
  },
  {
    "name": "Östra Odarslöv",
    "lat": 55.74006,
    "lng": 13.27629,
    "population": 71
  },
  {
    "name": "Östra Ljungby",
    "lat": 56.19601,
    "lng": 13.09199,
    "population": 1740
  },
  {
    "name": "Östra Karup",
    "lat": 56.42608,
    "lng": 12.93595,
    "population": 789
  },
  {
    "name": "Östra Husby",
    "lat": 58.58306,
    "lng": 16.55,
    "population": 868
  },
  {
    "name": "Östra Grevie",
    "lat": 55.46667,
    "lng": 13.13333,
    "population": 758
  },
  {
    "name": "Östra Göinge Kommun",
    "lat": 56.27212,
    "lng": 14.1598,
    "population": 13978
  },
  {
    "name": "Östra Frölunda",
    "lat": 57.34155,
    "lng": 13.02919,
    "population": 321
  },
  {
    "name": "Östorp",
    "lat": 59.14972,
    "lng": 18.01667,
    "population": 242
  },
  {
    "name": "Östnor",
    "lat": 61.03333,
    "lng": 14.48333,
    "population": 523
  },
  {
    "name": "Östmark",
    "lat": 60.28333,
    "lng": 12.75,
    "population": 205
  },
  {
    "name": "Östhammars Kommun",
    "lat": 60.24156,
    "lng": 18.26968,
    "population": 22138
  },
  {
    "name": "Östhammar",
    "lat": 60.25909,
    "lng": 18.37408,
    "population": 4726
  },
  {
    "name": "Östervåla",
    "lat": 60.18333,
    "lng": 17.18333,
    "population": 1696
  },
  {
    "name": "Östersunds Kommun",
    "lat": 63.22072,
    "lng": 14.90857,
    "population": 64979
  },
  {
    "name": "Östersund",
    "lat": 63.1792,
    "lng": 14.63566,
    "population": 49806
  },
  {
    "name": "Österstad",
    "lat": 58.51667,
    "lng": 15.16667,
    "population": 324
  },
  {
    "name": "Österslöv",
    "lat": 56.1,
    "lng": 14.25,
    "population": 460
  },
  {
    "name": "Östermalm",
    "lat": 59.33879,
    "lng": 18.08487,
    "population": 36418
  },
  {
    "name": "Östergötland County",
    "lat": 58.41667,
    "lng": 15.75,
    "population": 469872
  },
  {
    "name": "Österforse",
    "lat": 63.15,
    "lng": 17.01667,
    "population": 245
  },